City,Lat,Lng,Max Temp,Humidity,Cloudiness,Wind Speed,Country,Date
kontagora,10.3999,5.4695,82.87,56,73,5.55,NG,1618814797
kysyl-syr,63.8986,122.7617,21.31,77,100,8.48,RU,1618814800
vitim,59.4511,112.5578,32.61,71,96,6.91,RU,1618814800
dawei,14.0833,98.2,87.6,60,78,7.72,MM,1618814800
dalsingh sarai,25.6667,85.8333,104.65,6,0,16.98,IN,1618814800
banda aceh,5.5577,95.3222,86.43,63,100,14.88,ID,1618814777
nizhniy kuranakh,58.8353,125.4869,23.49,68,100,10.45,RU,1618814800
numan,9.4667,12.0333,87.51,51,86,13.18,NG,1618814800
srednekolymsk,67.45,153.6833,29.75,79,29,9.15,RU,1618814800
jinji,23.2281,110.8261,67.55,96,100,6.73,CN,1618814801
nishihara,26.1842,127.7558,73.4,49,75,12.66,JP,1618814582
mawlaik,23.6333,94.4167,104.58,13,74,3.31,MM,1618814801
neumunster,54.0667,9.9833,46.0,100,75,1.99,DE,1618814801
dikson,73.5069,80.5464,8.44,92,100,14.12,RU,1618814801
zhigansk,66.7697,123.3711,18.7,71,100,6.67,RU,1618814801
magadan,59.5667,150.8,34.25,86,100,21.59,RU,1618814594
kavieng,-2.5744,150.7967,83.84,72,92,10.94,PG,1618814802
mehamn,71.0357,27.8492,44.6,49,0,13.8,NO,1618814802
bardiyah,31.7561,25.0865,66.85,70,100,23.42,LY,1618814802
mayma,52.0197,85.9114,31.15,83,100,11.72,RU,1618814802
muroto,33.2833,134.15,64.4,42,0,10.36,JP,1618814802
hasaki,35.7333,140.8333,73.0,26,20,9.22,JP,1618814802
dhidhdhoo,6.8833,73.1,84.33,71,76,8.59,MV,1618814692
fara in sabina,42.2089,12.7292,48.0,94,83,2.17,IT,1618814802
vic,41.9301,2.2549,45.0,78,32,1.28,ES,1618814803
deputatskiy,69.3,139.9,14.0,87,98,3.74,RU,1618814803
bintulu,3.1667,113.0333,89.6,66,40,8.05,MY,1618814658
kargasok,59.0556,80.8572,13.62,65,100,18.81,RU,1618814803
kutum,14.2,24.6667,85.12,6,99,7.52,SD,1618814803
saskylakh,71.9167,114.0833,9.41,86,100,11.03,RU,1618814803
tumen,42.9661,129.8425,74.39,16,2,14.18,CN,1618814803
keti bandar,24.1447,67.4497,87.1,55,5,15.82,PK,1618814804
khasan,42.4308,130.6434,56.53,48,18,9.71,RU,1618814804
neustrelitz,53.3667,13.0833,45.0,99,53,5.73,DE,1618814804
akkermanovka,51.2467,58.2391,30.2,74,90,22.37,RU,1618814804
mehran,33.1222,46.1646,75.2,27,0,11.5,IR,1618814804
hami,42.8,93.45,73.6,14,21,5.44,CN,1618814804
dharur,18.8167,76.1167,96.91,14,1,8.75,IN,1618814805
tiksi,71.6872,128.8694,12.88,84,100,6.78,RU,1618814805
tahta,26.7693,31.5021,87.8,20,0,2.3,EG,1618814805
bratsk,56.1325,101.6142,37.4,60,40,11.18,RU,1618814805
hirara,24.8,125.2833,73.4,56,40,16.11,JP,1618814771
vostok,46.4856,135.8833,49.89,47,99,11.16,RU,1618814805
mahabad,36.7631,45.7222,71.46,34,8,7.7,IR,1618814805
tarko-sale,64.9225,77.785,5.0,67,61,19.8,RU,1618814806
moron,47.3825,110.3165,54.81,23,0,6.26,MN,1618814806
neryungri,56.6709,124.6491,19.85,78,100,16.22,RU,1618814806
zhangjiakou,40.81,114.8794,73.6,9,95,2.95,CN,1618814691
zaysan,47.4667,84.8667,60.46,43,90,7.4,KZ,1618814806
karpathos,35.507,27.2132,69.8,60,20,11.5,GR,1618814806
kupino,54.3663,77.2981,25.63,37,6,14.23,RU,1618814807
butembo,0.15,29.2833,72.5,53,52,6.06,CD,1618814807
tura,64.2833,100.25,25.23,91,100,20.94,RU,1618814807
seoul,37.5683,126.9778,69.8,48,0,11.5,KR,1618814606
gambo,4.6482,22.2633,78.51,67,100,3.91,CF,1618814807
poros,37.4994,23.4536,62.01,70,100,1.99,GR,1618814807
shache,38.4167,77.2406,73.33,12,14,10.49,CN,1618814808
ukhta,63.5671,53.6835,34.36,45,32,4.76,RU,1618814717
namatanai,-3.6667,152.4333,83.37,74,90,8.12,PG,1618814808
hercegszanto,45.95,18.9392,46.4,93,75,5.75,HU,1618814808
nusaybin,37.0778,41.2178,77.0,36,92,4.61,TR,1618814808
lugovoy,58.35,45.5,40.21,44,0,12.12,RU,1618814808
severo-yeniseyskiy,60.3725,93.0408,20.5,91,100,10.0,RU,1618814808
severo-kurilsk,50.6789,156.125,36.01,97,100,31.59,RU,1618814809
abu kamal,34.4506,40.9171,88.86,17,96,3.91,SY,1618814809
sur,22.5667,59.5289,91.74,31,100,3.2,OM,1618814809
hun,29.1268,15.9477,62.69,61,7,13.04,LY,1618814809
vysokogornyy,50.1167,139.15,33.94,90,100,10.31,RU,1618814809
marawi,18.4833,31.8167,94.15,22,0,11.59,SD,1618814809
anzhero-sudzhensk,56.081,86.0285,19.4,58,75,17.9,RU,1618814809
semnan,35.5729,53.3971,76.48,18,76,3.18,IR,1618814809
pevek,69.7008,170.3133,19.4,85,36,9.31,RU,1618814810
minna,9.6139,6.5569,82.04,48,90,4.7,NG,1618814810
ofunato,39.0717,141.7167,55.4,50,75,6.91,JP,1618814810
yanam,16.7333,82.2167,95.0,52,40,5.75,IN,1618814595
kalmunai,7.4167,81.8167,87.78,61,58,8.32,LK,1618814810
marsabit,2.3284,37.9899,71.2,66,28,15.37,KE,1618814810
salalah,17.0151,54.0924,86.0,62,40,4.61,OM,1618814810
boyabat,41.4689,34.7667,53.6,100,75,13.8,TR,1618814811
kapuvar,47.5922,17.0289,46.99,100,90,11.5,HU,1618814811
nemuro,43.3236,145.575,53.6,50,75,4.61,JP,1618814750
lorengau,-2.0226,147.2712,82.81,74,100,8.63,PG,1618814811
wanning,18.8003,110.3967,81.88,74,38,10.29,CN,1618814811
victoria,-4.6167,55.45,82.4,83,40,9.22,SC,1618814812
kloulklubed,7.0419,134.2556,78.8,83,90,9.22,PW,1618814812
hagi,34.4,131.4167,66.2,48,20,13.8,JP,1618814812
bilma,18.6853,12.9164,88.83,7,17,9.22,NE,1618814812
straumen,63.8709,11.2999,46.99,75,0,4.61,NO,1618814812
inta,66.0317,60.1659,24.91,78,100,18.48,RU,1618814812
teguldet,57.3064,88.1667,18.63,79,100,17.09,RU,1618814812
susaki,33.3667,133.2833,64.4,42,0,10.36,JP,1618814812
raudeberg,61.9875,5.1352,46.4,66,0,8.05,NO,1618814813
kitsuki,33.4167,131.6167,62.6,55,0,11.5,JP,1618814813
carbonia,39.1672,8.5222,46.4,81,40,5.75,IT,1618814813
tateyama,34.9833,139.8667,68.0,48,20,4.61,JP,1618814689
okhtyrka,50.3104,34.8988,46.04,81,100,4.41,UA,1618814813
naze,28.3667,129.4833,71.6,49,20,10.36,JP,1618814812
pechenga,69.5259,31.1703,42.8,56,0,5.75,RU,1618814813
svetlyy,54.675,20.1347,51.8,54,0,8.95,RU,1618814813
vanimo,-2.6741,141.3028,77.65,87,100,1.07,PG,1618814814
roald,62.5833,6.1333,44.6,70,0,8.05,NO,1618814814
dukat,62.55,155.55,27.5,94,100,6.67,RU,1618814814
dudinka,69.4058,86.1778,5.09,90,73,10.92,RU,1618814814
ibra,22.6906,58.5334,95.97,10,96,17.38,OM,1618814815
cotonou,6.3654,2.4183,75.2,94,20,3.44,BJ,1618814815
jodhpur,26.2867,73.03,100.94,11,9,9.26,IN,1618814815
lerwick,60.1545,-1.1494,44.6,81,0,11.5,GB,1618814816
tilichiki,60.4667,166.1,31.28,94,100,5.5,RU,1618814816
grasse,43.6667,6.9167,50.0,76,0,5.75,FR,1618814816
nagato,34.3833,131.2,66.2,20,0,14.97,JP,1618814817
am timan,11.0297,20.2827,90.25,33,69,10.63,TD,1618814817
tabuk,28.3833,36.5833,80.6,16,0,9.22,SA,1618814818
anadyr,64.75,177.4833,24.8,80,75,2.24,RU,1618814818
zhanaozen,43.3,52.8,72.34,30,99,11.1,KZ,1618814818
petropavlovsk-kamchatskiy,53.0452,158.6483,37.4,65,20,22.37,RU,1618814818
chokurdakh,70.6333,147.9167,12.42,90,16,6.38,RU,1618814818
shieli,44.1667,66.75,76.35,20,67,1.45,KZ,1618814818
ust-uda,54.1742,103.0304,51.85,38,100,15.41,RU,1618814818
butaritari,3.0707,172.7902,83.03,77,58,12.55,KI,1618814819
orlik,52.5178,99.825,45.95,42,0,16.71,RU,1618814819
kamaishi,39.2667,141.8833,55.4,50,75,6.91,JP,1618814819
havoysund,70.9963,24.6622,42.8,70,0,26.46,NO,1618814819
seymchan,62.8833,152.4333,32.25,91,100,1.95,RU,1618814819
khatanga,71.9667,102.5,8.35,83,100,7.56,RU,1618814819
ust-maya,60.4167,134.5333,37.27,91,100,6.98,RU,1618814820
nikolskoye,59.7035,30.7861,46.99,61,0,6.71,RU,1618814820
minab,27.1467,57.0801,84.2,54,0,9.22,IR,1618814820
marivan,35.5219,46.176,72.46,33,86,2.77,IR,1618814820
biak,-0.9131,122.8766,82.49,66,100,2.17,ID,1618814821
batagay-alyta,67.8006,130.4114,16.2,70,94,4.59,RU,1618814821
araceli,10.5529,119.9913,86.2,68,100,14.67,PH,1618814821
honningsvag,70.9821,25.9704,37.4,70,0,26.46,NO,1618814821
kostino,58.9097,53.2691,36.54,41,2,7.05,RU,1618814821
berlevag,70.8578,29.0864,44.6,49,0,13.8,NO,1618814821
san quintin,30.4833,-115.95,60.19,64,0,2.1,MX,1618814821
baker city,44.7749,-117.8344,55.0,69,0,1.01,US,1618814822
morant bay,17.8815,-76.4093,78.8,73,20,10.36,JM,1618814822
vila franca do campo,37.7167,-25.4333,59.0,88,20,3.44,PT,1618814822
kourou,5.1552,-52.6478,79.0,100,75,6.8,GF,1618814822
thompson,55.7435,-97.8558,19.4,68,1,5.75,CA,1618814822
los llanos de aridane,28.6585,-17.9182,64.4,68,20,11.5,ES,1618814822
wawa,47.9834,-84.7832,35.83,61,98,3.94,CA,1618814823
itarema,-2.9248,-39.9167,74.37,93,100,7.49,BR,1618814823
egvekinot,66.3167,-179.1667,20.12,94,100,4.12,RU,1618814823
lagoa,39.05,-27.9833,60.69,87,96,9.53,PT,1618814823
harper,4.375,-7.7169,78.96,83,98,1.63,LR,1618814823
cockburn town,24.0333,-74.5167,77.74,85,72,14.03,BS,1618814823
provideniya,64.3833,-173.3,32.0,69,0,4.47,RU,1618814823
ada,43.4166,-116.1262,55.4,28,1,9.22,US,1618814824
nouakchott,18.0858,-15.9785,68.0,73,69,12.66,MR,1618814736
tuktoyaktuk,69.4541,-133.0374,22.89,95,10,10.96,CA,1618814824
ahuimanu,21.4447,-157.8378,75.2,73,75,6.91,US,1618814824
tibu,8.639,-72.7358,72.88,98,100,1.63,CO,1618814824
kapaa,22.0752,-159.319,73.4,68,20,9.22,US,1618814824
flagstaff,35.1981,-111.6513,37.0,64,1,5.88,US,1618814544
vista hermosa,19.5167,-99.2167,66.2,15,1,5.75,MX,1618814825
fortuna,40.5982,-124.1573,48.99,100,90,2.73,US,1618814825
salinopolis,-0.6136,-47.3561,76.68,89,97,3.02,BR,1618814825
cedral,23.8,-100.7333,50.13,88,46,14.9,MX,1618814825
sunland park,31.7965,-106.58,51.8,50,20,5.75,US,1618814825
tombouctou,20.0,-3.0,74.52,17,0,12.33,ML,1618814825
dauphin,51.1494,-100.0502,23.0,74,1,8.05,CA,1618814825
progreso,21.2833,-89.6667,73.4,88,40,3.44,MX,1618814826
ribeira grande,38.5167,-28.7,62.6,88,40,5.75,PT,1618814826
ribeira brava,16.6167,-24.3,67.96,82,57,16.13,CV,1618814826
velingara,13.15,-14.1167,78.82,60,100,5.64,SN,1618814826
ukiah,39.1502,-123.2078,60.8,39,1,4.18,US,1618814826
stornoway,58.2093,-6.3865,46.99,93,75,12.66,GB,1618814826
pochutla,15.7432,-96.4661,77.0,84,5,1.01,MX,1618814827
port huron,42.9709,-82.4249,42.8,87,75,7.31,US,1618814678
ixtapa,20.7,-105.2,65.26,78,3,3.02,MX,1618814827
pacific grove,36.6177,-121.9166,50.0,87,20,3.44,US,1618814828
husavik,66.0449,-17.3389,33.8,55,75,8.05,IS,1618814828
cabo san lucas,22.8909,-109.9124,69.01,80,100,1.99,MX,1618814828
lethem,3.3803,-59.7968,74.01,77,100,10.8,GY,1618814828
san cristobal,-0.9045,-89.6174,76.91,90,59,5.73,EC,1618814828
topeka,39.0483,-95.678,46.0,75,1,9.04,US,1618814828
sao filipe,14.8961,-24.4956,71.74,74,12,9.04,CV,1618814828
yellowknife,62.456,-114.3525,32.0,69,75,4.61,CA,1618814809
mandiana,10.6333,-8.6833,80.42,47,59,3.8,GN,1618814829
bethel,41.3712,-73.414,48.0,81,1,3.71,US,1618814829
coahuayana,18.7333,-103.6833,65.1,72,6,4.54,MX,1618814829
teguise,29.0605,-13.564,62.6,72,20,8.05,ES,1618814829
ucluelet,48.9329,-125.5528,48.99,86,100,1.9,CA,1618814829
braganca,41.8058,-6.7572,46.99,87,100,2.33,PT,1618814829
slave lake,55.2834,-114.769,32.0,59,1,3.44,CA,1618814829
hornepayne,49.2138,-84.7705,34.05,94,100,7.74,CA,1618814830
sitka,57.0531,-135.33,55.4,44,1,13.8,US,1618814830
saint george,32.3817,-64.6781,66.99,88,75,4.61,BM,1618814830
mitu,1.1983,-70.1733,70.72,99,100,1.52,CO,1618814830
ponta do sol,17.1994,-25.0919,69.8,73,20,21.85,CV,1618814830
the valley,18.217,-63.0578,78.8,83,20,9.22,AI,1618814830
saint-augustin,51.226,-58.6502,37.76,94,100,18.01,CA,1618814830
lavrentiya,65.5833,-171.0,25.16,87,100,6.38,RU,1618814830
macomb,40.4592,-90.6718,46.0,81,1,8.05,US,1618814831
puerto ayacucho,5.6639,-67.6236,74.17,86,100,3.44,VE,1618814831
monroe,43.1501,-77.6831,48.0,76,75,6.91,US,1618814831
puerto ayora,-0.7393,-90.3518,73.99,98,46,5.21,EC,1618814831
grindavik,63.8424,-22.4338,32.0,86,75,8.05,IS,1618814817
douglas,41.3,-96.167,46.4,61,1,9.22,US,1618814831
totness,5.8833,-56.3167,76.12,82,100,10.09,SR,1618814831
qaanaaq,77.484,-69.3632,2.37,74,100,5.79,GL,1618814832
puerto escondido,15.85,-97.0667,77.5,67,0,5.28,MX,1618814832
kahului,20.8947,-156.47,73.4,73,40,12.66,US,1618814832
kodiak,57.79,-152.4072,46.4,66,1,6.91,US,1618814832
bubaque,11.2833,-15.8333,77.58,69,98,9.8,GW,1618814832
davis,41.0005,-112.0013,50.0,34,1,8.05,US,1618814832
san pedro buenavista,16.0833,-93.1167,69.49,74,22,1.21,MX,1618814832
atar,20.5169,-13.0499,73.98,18,0,7.63,MR,1618814833
livingston,40.7959,-74.3149,52.0,93,1,2.77,US,1618814833
klaksvik,62.2266,-6.589,39.2,93,75,3.44,FO,1618814833
lewiston,44.1003,-70.2148,39.0,93,1,2.91,US,1618814833
praxedis guerrero,31.3667,-106.0167,51.8,43,40,10.36,MX,1618814833
san patricio,19.2167,-104.7,66.79,78,12,4.41,MX,1618814834
nome,64.5011,-165.4064,36.0,75,75,5.21,US,1618814834
brae,60.3964,-1.353,44.6,81,0,11.5,GB,1618814834
upata,8.0086,-62.3989,75.0,90,99,1.01,VE,1618814834
caraballeda,10.6112,-66.8522,78.8,83,75,10.85,VE,1618814834
la ronge,55.1001,-105.2842,30.2,51,99,4.61,CA,1618814834
norman wells,65.282,-126.8329,41.0,56,1,8.05,CA,1618814835
hilo,19.7297,-155.09,73.4,73,90,5.46,US,1618814681
porto santo,33.072,-16.3415,59.0,82,20,10.36,PT,1618814835
porto novo,17.0197,-25.0647,69.8,73,20,21.85,CV,1618814835
upernavik,72.7868,-56.1549,-0.31,83,100,4.94,GL,1618814835
lompoc,34.6391,-120.4579,48.2,93,0,5.64,US,1618814835
paamiut,61.994,-49.6678,30.74,84,100,18.77,GL,1618814835
salmon creek,45.7107,-122.649,62.6,29,1,5.75,US,1618814835
issaquah,47.5301,-122.0326,59.0,56,1,4.16,US,1618814836
pangnirtung,66.1451,-65.7125,5.88,80,92,6.38,CA,1618814836
moose factory,51.2585,-80.6094,35.6,64,90,3.44,CA,1618814836
ilulissat,69.2167,-51.1,12.2,52,40,23.02,GL,1618814836
los lunas,34.8062,-106.7334,43.0,56,1,5.75,US,1618814836
ponta do sol,32.6667,-17.1,57.0,66,0,3.0,PT,1618814836
rocky mountain house,52.3668,-114.9188,30.2,86,99,6.91,CA,1618814836
juneau,58.3019,-134.4197,46.0,65,1,7.56,US,1618814836
clyde river,70.4692,-68.5914,3.2,92,90,13.8,CA,1618814837
mountain home,43.133,-115.6912,46.4,27,1,4.61,US,1618814837
kenora,49.8167,-94.4337,26.6,59,90,12.66,CA,1618814837
port hardy,50.6996,-127.4199,50.0,87,1,3.44,CA,1618814837
nanortalik,60.1432,-45.2371,29.68,54,81,6.89,GL,1618814837
fairbanks,64.8378,-147.7164,44.6,49,1,3.91,US,1618814837
ketchikan,55.3422,-131.6461,60.8,53,1,4.94,US,1618814837
eureka,40.8021,-124.1637,48.99,89,100,2.46,US,1618814837
cayon,17.35,-62.7333,78.8,78,0,14.97,KN,1618814838
san andres,12.5847,-81.7006,80.6,89,75,6.91,CO,1618814838
barrow,71.2906,-156.7887,28.4,69,1,8.05,US,1618814838
guerrero negro,27.9769,-114.0611,59.49,88,0,8.1,MX,1618814838
port hueneme,34.1478,-119.1951,57.2,87,1,6.91,US,1618814838
amapa,1.0,-52.0,69.75,99,100,1.86,BR,1618814838
matagami,49.7502,-77.6328,28.4,86,1,2.3,CA,1618814838
canon city,38.441,-105.2424,39.99,81,1,5.75,US,1618814839
brookhaven,31.5791,-90.4407,51.01,86,0,4.81,US,1618814839
atuona,-9.8,-139.0333,80.47,78,26,18.19,PF,1618814839
fredericton,45.9454,-66.6656,35.6,93,75,4.61,CA,1618814839
taoudenni,22.6783,-3.9836,77.22,11,49,13.4,ML,1618814839
camacha,33.0833,-16.3333,59.0,82,20,10.36,PT,1618814839
iqaluit,63.7506,-68.5145,15.8,73,90,2.3,CA,1618814839
tourlaville,49.6383,-1.5664,46.99,87,0,5.75,FR,1618814839
revelstoke,50.9832,-118.2023,42.8,45,1,8.05,CA,1618814840
bemidji,47.4736,-94.8803,28.99,80,90,11.5,US,1618814840
acapulco,16.8634,-99.8901,74.55,61,17,5.55,MX,1618814779
haines junction,60.7522,-137.5108,33.8,64,93,1.86,CA,1618814840
cozumel,20.5083,-86.9458,80.6,89,75,10.36,MX,1618814840
victorville,34.5361,-117.2912,57.0,12,0,4.0,US,1618814840
bonavista,48.6499,-53.1147,35.6,100,100,1.14,CA,1618814840
qasigiannguit,68.8193,-51.1922,12.2,52,40,23.02,GL,1618814840
santa fe,23.1292,-82.2613,77.0,88,20,4.61,CU,1618814841
torbay,47.6666,-52.7314,36.0,100,90,2.3,CA,1618814841
opelika,32.6454,-85.3783,57.2,67,1,5.75,US,1618814842
clinton,42.587,-82.9199,48.99,100,75,5.75,US,1618814842
sterling,39.0062,-77.4286,52.0,76,90,4.61,US,1618814842
tamworth,52.634,-1.6959,43.0,80,1,1.01,GB,1618814842
tomatlan,19.9333,-105.25,63.18,85,1,3.49,MX,1618814842
fez,34.0372,-4.9998,50.0,87,0,4.61,MA,1618814842
tasiilaq,65.6145,-37.6368,14.0,62,1,5.75,GL,1618814842
minot,48.2325,-101.2963,28.4,69,90,8.05,US,1618814843
broken hill,-31.95,141.4333,71.6,28,0,8.05,AU,1618814843
mutare,-18.9707,32.6709,64.26,59,29,4.68,ZW,1618814843
busselton,-33.65,115.3333,66.0,94,89,1.99,AU,1618814843
hobart,-42.8794,147.3294,64.4,39,75,18.41,AU,1618814551
kupang,-10.1667,123.5833,82.98,63,47,10.51,ID,1618814843
henties bay,-22.116,14.2845,82.06,39,33,15.12,NA,1618814843
aitape,-3.1374,142.3475,79.0,87,100,6.76,PG,1618814844
gweta,-20.1833,25.2333,65.32,41,0,11.1,BW,1618814844
innisfail,-17.5333,146.0333,73.94,95,100,7.18,AU,1618814844
cowra,-33.8333,148.6833,55.99,58,35,1.01,AU,1618814844
nchelenge,-9.3451,28.734,68.09,74,99,5.99,ZM,1618814844
senanga,-16.1167,23.2667,69.19,54,48,9.73,ZM,1618814845
sibolga,1.7427,98.7792,85.41,62,74,4.94,ID,1618814845
esperance,-33.8667,121.9,69.8,60,40,16.11,AU,1618814845
katherine,-14.4667,132.2667,91.4,27,0,8.05,AU,1618814845
sydney,-33.8679,151.2073,69.8,60,0,11.5,AU,1618814775
nanyamba,-10.6833,39.8333,75.2,78,75,23.02,TZ,1618814845
samarinda,-0.5,117.15,88.03,58,100,3.96,ID,1618814845
east london,-33.0153,27.9116,73.4,56,40,20.71,ZA,1618814719
antalaha,-14.9003,50.2788,79.39,83,8,13.42,MG,1618814846
eenhana,-17.4667,16.3333,69.12,44,7,11.86,NA,1618814846
mount hagen,-5.8581,144.2274,65.62,86,76,4.88,PG,1618814846
warkworth,-36.4,174.6667,62.01,80,98,1.99,NZ,1618814846
bambous virieux,-20.3428,57.7575,82.99,78,40,11.5,MU,1618814846
vangaindrano,-23.35,47.6,73.96,64,3,0.47,MG,1618814847
port elizabeth,-33.918,25.5701,66.2,88,90,19.57,ZA,1618814847
chama,-11.213,33.1521,69.19,76,100,3.2,ZM,1618814847
maun,-19.9833,23.4167,59.0,67,0,8.05,BW,1618814847
cuamba,-14.8031,36.5372,70.86,68,51,4.21,MZ,1618814847
russell,-35.2613,174.1236,60.01,83,100,6.49,NZ,1618814847
port macquarie,-31.4333,152.9167,68.0,65,0,4.76,AU,1618814847
bredasdorp,-34.5322,20.0403,62.6,77,100,14.97,ZA,1618814847
saldanha,-33.0117,17.9442,64.4,82,100,4.61,ZA,1618814848
angoche,-16.2325,39.9086,78.46,61,70,9.6,MZ,1618814848
maxixe,-23.8597,35.3472,71.6,73,20,2.86,MZ,1618814742
christchurch,-43.5333,172.6333,60.8,72,68,5.75,NZ,1618814700
new norfolk,-42.7826,147.0587,64.0,56,100,8.01,AU,1618814848
port alfred,-33.5906,26.891,73.87,77,91,19.66,ZA,1618814848
okakarara,-20.5833,17.4333,64.26,48,7,9.35,NA,1618814848
te anau,-45.4167,167.7167,51.06,88,31,6.08,NZ,1618814848
kitui,-1.367,38.0106,70.54,79,92,5.28,KE,1618814849
howard springs,-12.497,131.047,91.99,33,0,6.91,AU,1618814849
bluff,-46.6,168.3333,57.99,81,100,1.99,NZ,1618814850
mount isa,-20.7333,139.5,89.6,22,10,12.66,AU,1618814850
daru,-9.0763,143.2092,82.42,77,95,4.21,PG,1618814850
camabatela,-8.1881,15.375,65.25,93,100,4.79,AO,1618814850
tual,-5.6667,132.75,82.49,71,84,6.38,ID,1618814850
samarai,-10.6167,150.6667,83.71,75,99,11.9,PG,1618814850
mahebourg,-20.4081,57.7,82.4,78,40,11.5,MU,1618814850
umtata,-31.5889,28.7844,75.33,28,1,4.34,ZA,1618814851
karratha,-20.7377,116.8463,85.68,50,39,13.11,AU,1618814825
hithadhoo,-0.6,73.0833,82.9,67,95,5.32,MV,1618814851
mount gambier,-37.8333,140.7667,64.4,55,90,17.27,AU,1618814852
simpang,-1.2667,104.0833,82.45,80,100,4.83,ID,1618814852
kieta,-6.2167,155.6333,84.47,81,21,6.13,PG,1618814852
nabire,-3.3667,135.4833,82.35,78,100,1.97,ID,1618814823
bengkulu,-3.8004,102.2655,84.09,67,36,8.63,ID,1618814798
hukuntsi,-24.0,21.75,65.62,40,30,10.56,BW,1618814853
adelaide,-34.9333,138.6,69.01,42,20,13.8,AU,1618814843
otane,-39.8833,176.6333,64.0,59,96,1.01,NZ,1618814853
kwinana,-32.25,115.7667,73.99,46,6,14.97,AU,1618814853
portland,-38.3333,141.6,63.88,64,50,13.82,AU,1618814853
madimba,-10.4,40.3333,75.2,78,75,23.02,TZ,1618814853
nhulunbuy,-12.2333,136.7667,86.0,70,75,5.75,AU,1618814853
takoradi,4.8845,-1.7554,78.89,82,100,4.63,GH,1618814832
port hedland,-20.3167,118.5667,87.8,37,0,12.66,AU,1618814854
port keats,-14.25,129.55,89.76,34,20,3.29,AU,1618814854
plettenberg bay,-34.0527,23.3716,66.6,87,100,8.43,ZA,1618814854
luanda,-8.8368,13.2343,80.6,94,75,6.91,AO,1618814829
saint-philippe,-21.3585,55.7679,78.8,88,75,16.11,RE,1618814854
kilimatinde,-5.85,34.95,67.21,80,100,6.38,TZ,1618814854
buala,-8.145,159.5921,82.38,79,97,4.54,SB,1618814856
flinders,-34.5833,150.8552,69.8,49,0,11.5,AU,1618814774
kaitangata,-46.2817,169.8464,61.0,55,50,8.01,NZ,1618814857
naberera,-4.2,36.9333,62.2,87,100,9.15,TZ,1618814857
labuhan,-6.8844,112.2051,86.09,60,100,5.23,ID,1618814857
byron bay,-28.65,153.6167,71.6,68,0,8.05,AU,1618814842
xai-xai,-25.0519,33.6442,72.25,59,0,4.47,MZ,1618814857
meulaboh,4.1363,96.1285,84.58,61,96,3.98,ID,1618814857
bima,-8.4667,118.7167,85.87,56,100,7.07,ID,1618814857
vao,-22.6667,167.4833,77.25,83,100,11.27,NC,1618814858
ahipara,-35.1667,173.1667,58.23,76,48,6.73,NZ,1618814858
palu,-0.8917,119.8707,85.96,64,100,4.83,ID,1618814858
gizo,-8.103,156.8419,83.16,77,100,11.77,SB,1618814858
mitsamiouli,-11.3847,43.2844,82.13,74,12,8.72,KM,1618814858
cap malheureux,-19.9842,57.6142,82.99,73,63,8.99,MU,1618814858
ambilobe,-13.2,49.05,87.46,57,6,4.97,MG,1618814743
rundu,-17.9333,19.7667,66.42,43,1,9.62,NA,1618814858
maramba,-5.05,38.6167,61.99,92,100,4.34,TZ,1618814859
vryburg,-26.9566,24.7284,67.89,39,0,2.39,ZA,1618814739
grootfontein,-19.5667,18.1167,62.98,44,0,10.18,NA,1618814859
masuguru,-11.3667,38.4167,74.97,69,75,7.61,TZ,1618814859
padang,-0.9492,100.3543,84.74,68,28,5.66,ID,1618814783
richards bay,-28.783,32.0377,71.33,57,0,11.79,ZA,1618814859
isangel,-19.55,169.2667,84.2,84,40,6.85,VU,1618814859
ballitoville,-29.539,31.2144,75.0,64,0,1.14,ZA,1618814860
gamba,-2.65,10.0,78.6,83,100,2.3,GA,1618814860
khorixas,-20.3667,14.9667,73.67,37,11,16.62,NA,1618814860
hermanus,-34.4187,19.2345,62.01,87,100,1.99,ZA,1618814860
poya,-21.35,165.15,76.95,86,99,2.86,NC,1618814860
maketu,-37.7667,176.45,60.01,84,99,1.99,NZ,1618814860
souillac,-20.5167,57.5167,82.4,78,40,11.5,MU,1618814860
port-gentil,-0.7193,8.7815,80.6,89,75,2.3,GA,1618814860
cape town,-33.9258,18.4232,63.0,82,20,24.16,ZA,1618814644
northam,-31.6667,116.6667,75.2,41,40,10.36,AU,1618814861
poum,-20.2333,164.0167,79.09,76,99,7.23,NC,1618814861
laela,-8.5667,32.05,60.44,88,100,4.74,TZ,1618814861
tsiroanomandidy,-18.7667,46.0333,72.01,65,10,6.26,MG,1618814861
mocuba,-16.8392,36.9856,74.26,74,3,3.65,MZ,1618814861
roma,-26.5833,148.7833,73.42,25,0,4.79,AU,1618814861
morondava,-20.2833,44.2833,80.74,60,13,3.36,MG,1618814862
broome,-17.9667,122.2333,87.8,15,0,8.05,AU,1618814862
auki,-8.7676,160.7034,80.82,81,50,1.03,SB,1618814862
forbes,-33.3833,148.0167,64.17,42,39,4.34,AU,1618814862
koumac,-20.5667,164.2833,77.58,81,100,4.41,NC,1618814862
geraldton,-28.7667,114.6,78.8,36,100,24.16,AU,1618814769
dunedin,-45.8742,170.5036,57.99,66,93,4.0,NZ,1618814862
warwick,-28.2333,152.0167,63.0,63,0,3.13,AU,1618814862
beloha,-25.1667,45.05,75.34,46,0,13.0,MG,1618814863
tuatapere,-46.1333,167.6833,57.99,81,97,1.99,NZ,1618814863
yulara,-25.2406,130.9889,75.2,19,0,6.91,AU,1618814863
swellendam,-34.0226,20.4417,62.6,77,100,14.97,ZA,1618814863
quelimane,-17.8786,36.8883,71.6,88,75,5.75,MZ,1618814863
albany,-35.0169,117.8917,62.6,94,75,8.05,AU,1618814863
walvis bay,-22.9575,14.5053,81.93,39,4,7.31,NA,1618814863
namibe,-15.1961,12.1522,84.56,56,56,5.01,AO,1618814864
luderitz,-26.6481,15.1594,78.39,44,4,5.35,NA,1618814864
saurimo,-9.6608,20.3916,71.37,75,92,8.39,AO,1618814864
khakhea,-24.6895,23.494,67.21,37,60,5.28,BW,1618814864
merauke,-8.4667,140.3333,82.29,77,88,8.55,ID,1618814864
kirakira,-10.4544,161.9205,82.24,81,39,7.36,SB,1618814864
carnarvon,-24.8667,113.6333,80.33,51,0,22.01,AU,1618814834
wanaka,-44.7,169.15,49.64,85,50,5.99,NZ,1618814865
mackay,-21.15,149.2,78.8,78,75,13.8,AU,1618814783
diego de almagro,-26.3667,-70.05,57.54,65,0,2.53,CL,1618814865
rio gallegos,-51.6226,-69.2181,48.2,81,90,9.22,AR,1618814865
corrales,-15.4662,-71.498,34.56,49,0,1.3,PE,1618814866
linares,-35.85,-71.6,53.71,59,7,0.89,CL,1618814866
rosario do sul,-30.2583,-54.9142,58.28,95,100,8.46,BR,1618814867
belmonte,-15.8631,-38.8828,73.4,88,20,3.44,BR,1618814867
rikitea,-23.1203,-134.9692,77.63,75,2,5.7,PF,1618814867
manicore,-5.8092,-61.3003,73.4,100,20,1.14,BR,1618814867
haapiti,-17.5667,-149.8667,80.6,78,20,3.44,PF,1618814867
pangoa,-12.1167,-73.0,68.5,99,100,1.16,PE,1618814867
chimbote,-9.0853,-78.5783,66.54,89,100,5.35,PE,1618814867
georgetown,-7.9333,-14.4167,79.9,71,0,20.94,SH,1618814868
filadelfia,-22.35,-60.0333,69.37,65,0,7.34,PY,1618814868
tarauaca,-8.1614,-70.7656,71.1,99,100,1.77,BR,1618814868
concordia,-31.393,-58.0209,66.0,84,0,11.99,AR,1618814868
parana,-31.732,-60.5238,66.99,91,0,8.14,AR,1618814868
caravelas,-17.7125,-39.2481,72.0,95,66,5.41,BR,1618814868
castro,-42.4721,-73.7732,57.2,100,90,17.27,CL,1618814868
camana,-16.6228,-72.7111,67.1,85,2,6.73,PE,1618814869
saquena,-4.6667,-73.5167,72.57,95,98,2.75,PE,1618814869
san pedro,-24.2313,-64.8661,66.2,100,90,5.75,AR,1618814869
rio grande,-32.035,-52.0986,66.22,71,0,10.8,BR,1618814869
nortelandia,-14.4547,-56.8028,71.42,86,71,2.44,BR,1618814869
diamantino,-14.4086,-56.4461,71.38,84,9,2.28,BR,1618814869
tacna,-18.0056,-70.2483,68.0,64,90,5.75,PE,1618814869
sao geraldo do araguaia,-6.4006,-48.555,71.58,99,100,4.88,BR,1618814869
comodoro rivadavia,-45.8667,-67.5,66.2,55,0,2.3,AR,1618814870
san joaquin,-16.3829,-58.3947,74.07,86,85,3.15,BO,1618814870
axim,4.8699,-2.2405,79.7,82,100,3.91,GH,1618814870
ushuaia,-54.8,-68.3,50.0,76,90,6.91,AR,1618814748
rawson,-43.3002,-65.1023,67.71,40,37,19.06,AR,1618814870
itupiranga,-5.1347,-49.3267,71.38,98,100,1.61,BR,1618814870
olavarria,-36.8927,-60.3225,60.01,99,6,5.01,AR,1618814870
itinga,-16.6131,-41.7653,68.29,93,100,1.95,BR,1618814870
pontes e lacerda,-15.2261,-59.3353,69.53,95,3,1.54,BR,1618814871
aripuana,-9.1667,-60.6333,70.48,99,100,0.83,BR,1618814871
faanui,-16.4833,-151.75,82.71,74,5,12.88,PF,1618814871
cassilandia,-19.1133,-51.7342,67.19,72,27,1.45,BR,1618814871
pisco,-13.7,-76.2167,66.2,77,0,2.3,PE,1618814871
rocha,-34.4833,-54.3333,56.3,91,69,4.07,UY,1618814872
sechura,-5.5569,-80.8222,72.28,73,100,8.34,PE,1618814872
hualmay,-11.0964,-77.6139,67.15,87,80,5.12,PE,1618814872
puerto leguizamo,-0.1934,-74.7819,71.56,98,100,3.87,CO,1618814872
punta arenas,-53.15,-70.9167,46.4,87,0,6.91,CL,1618814872
tocopilla,-22.092,-70.1979,65.44,70,6,4.63,CL,1618814873
coquimbo,-29.9533,-71.3436,55.4,88,90,4.61,CL,1618814873
sao miguel do araguaia,-13.275,-50.1628,69.49,95,100,2.01,BR,1618814873
cruz alta,-28.6386,-53.6064,62.6,94,0,9.22,BR,1618814873
paita,-5.0892,-81.1144,71.17,77,100,4.61,PE,1618814873
maceio,-9.6658,-35.7353,71.6,100,20,3.44,BR,1618814873
antofagasta,-23.65,-70.4,64.4,72,90,3.44,CL,1618814874
macau,-5.115,-36.6344,75.47,90,100,9.37,BR,1618814874
lima,-12.0432,-77.0282,68.0,88,0,3.44,PE,1618814626
fuerte olimpo,-21.0415,-57.8738,71.22,59,8,3.85,PY,1618814874
sao felix do xingu,-6.6447,-51.995,69.94,97,80,1.12,BR,1618814874
carira,-10.3608,-37.7011,68.34,96,100,3.42,BR,1618814874
taltal,-25.4,-70.4833,62.31,82,84,1.05,CL,1618814875
ayna,-12.65,-73.9167,59.85,91,98,0.94,PE,1618814875
talcahuano,-36.7167,-73.1167,57.2,88,90,5.75,CL,1618814875
almenara,-16.1836,-40.6944,68.27,99,94,0.89,BR,1618814875
capao bonito,-24.0058,-48.3494,58.28,96,77,3.4,BR,1618814875
porto nacional,-10.7081,-48.4172,73.4,94,20,2.3,BR,1618814876
carauari,-4.8828,-66.8958,70.34,99,100,1.88,BR,1618814876
chuy,-33.6971,-53.4616,61.23,79,98,6.4,UY,1618814876
arraial do cabo,-22.9661,-42.0278,74.23,84,88,13.71,BR,1618814876
necochea,-38.5473,-58.7368,63.0,91,24,13.0,AR,1618814877
cidreira,-30.1811,-50.2056,71.04,64,99,9.01,BR,1618814877
ancud,-41.8697,-73.8203,57.2,100,90,17.27,CL,1618814877
constitucion,-35.3333,-72.4167,54.61,61,61,2.84,CL,1618814877
neuquen,-38.9516,-68.0591,64.4,88,0,2.3,AR,1618814877
coihaique,-45.5752,-72.0662,50.27,98,100,4.18,CL,1618814877
alofi,-19.0595,-169.9187,73.4,83,38,2.3,NU,1618814877
molina,-35.1167,-71.2833,48.2,100,90,2.3,CL,1618814878
bahia blanca,-38.7196,-62.2724,68.36,75,14,13.02,AR,1618814878
olinda,-8.0089,-34.8553,71.6,94,40,4.61,BR,1618814878
jamestown,-15.9387,-5.7168,69.89,73,21,17.69,SH,1618814878
fare,-16.7,-151.0167,82.44,70,0,13.33,PF,1618814878
caucaia,-3.7361,-38.6531,77.0,83,40,3.44,BR,1618814878
talara,-4.5772,-81.2719,70.39,85,100,4.97,PE,1618814878
laguna,-28.4825,-48.7808,67.33,87,71,5.77,BR,1618814879
parati,-23.2178,-44.7131,67.87,94,7,4.16,BR,1618814879
azul,-36.777,-59.8585,60.01,99,8,5.01,AR,1618814879
sao paulo de olivenca,-3.3783,-68.8725,71.4,98,100,1.9,BR,1618814880
bahia de caraquez,-0.6,-80.4167,77.0,83,75,1.14,EC,1618814880
tinyahuarco,-10.75,-76.3,35.4,91,100,0.31,PE,1618814880
guarapari,-20.6667,-40.4975,75.2,83,0,2.3,BR,1618814880
maldonado,-34.6667,-54.9167,63.0,94,0,6.91,UY,1618814880
grajau,-5.8194,-46.1386,70.39,98,100,3.67,BR,1618814880
rurrenabaque,-14.4413,-67.5278,71.01,99,49,1.39,BO,1618814880
tres arroyos,-38.3739,-60.2798,63.55,87,44,13.35,AR,1618814881
mar del plata,-38.0023,-57.5575,64.99,100,0,4.61,AR,1618814881
vaini,-21.2,-175.2,77.0,83,20,6.91,TO,1618814881
guaruja,-23.9931,-46.2564,71.01,26,45,9.26,BR,1618814881
sao joao da barra,-21.6403,-41.0511,72.55,86,96,7.11,BR,1618814881
lebu,-37.6167,-73.65,56.32,89,9,13.27,CL,1618814881
santiago del estero,-27.7951,-64.2615,74.01,58,89,10.04,AR,1618814881
villamontes,-21.25,-63.5,68.81,94,100,4.36,BO,1618814882
gilbues,-9.8317,-45.3439,70.34,91,97,1.68,BR,1618814882
codajas,-3.8367,-62.0569,72.7,99,100,2.17,BR,1618814883
pauini,-7.7136,-66.9764,71.51,99,100,1.72,BR,1618814883
saquisili,-0.8333,-78.6667,50.0,93,75,1.14,EC,1618814883
san ramon,-13.2833,-64.7167,72.48,97,94,4.0,BO,1618814883
coruripe,-10.1256,-36.1756,74.82,88,87,5.19,BR,1618814883
santiago,-33.4569,-70.6483,66.0,87,7,1.01,CL,1618814883
barcelos,-0.9747,-62.9242,72.64,98,100,2.89,BR,1618814883
touros,-5.1989,-35.4608,73.4,100,75,4.61,BR,1618814883
mayor pablo lagerenza,-19.9309,-60.7718,77.32,62,100,0.36,PY,1618814884
victoria,-32.6184,-60.1548,66.0,94,0,7.7,AR,1618814884
tefe,-3.3542,-64.7114,72.46,99,100,2.64,BR,1618814884
copiapo,-27.3667,-70.3333,57.2,88,90,5.75,CL,1618814884
laja,-37.2667,-72.7,57.2,88,90,5.75,CL,1618814884
vallenar,-28.5708,-70.7581,59.97,79,6,1.79,CL,1618814884
alta floresta,-9.8756,-56.0861,69.87,98,100,2.59,BR,1618814884
tautira,-17.7333,-149.15,80.6,78,20,3.44,PF,1618814885
santa rosa,-36.6167,-64.2833,66.18,78,99,12.55,AR,1618814885
prado,-17.3411,-39.2208,72.73,93,85,7.34,BR,1618814885
huarmey,-10.0681,-78.1522,67.62,88,100,6.42,PE,1618814885
sao francisco de assis,-29.5503,-55.1311,59.65,96,52,10.47,BR,1618814885
vila velha,-20.3297,-40.2925,75.2,83,0,2.3,BR,1618814885
iquique,-20.2208,-70.1431,66.2,68,75,5.75,CL,1618814885
ararangua,-28.9347,-49.4858,66.96,89,97,4.9,BR,1618814886
sao gabriel da cachoeira,-0.1303,-67.0892,71.06,99,100,0.51,BR,1618814886
quixere,-5.0742,-37.9886,72.18,95,100,4.56,BR,1618814886
tucurui,-3.7661,-49.6725,71.6,98,70,1.5,BR,1618814887
valparaiso,-33.0393,-71.6273,55.0,78,62,0.92,CL,1618814887
maragogi,-9.0122,-35.2225,75.61,85,60,2.51,BR,1618814887
san antonio,-33.5933,-71.6217,53.6,100,90,2.3,CL,1618814887
rio verde de mato grosso,-18.9181,-54.8442,71.91,64,21,3.83,BR,1618814888
avarua,-21.2078,-159.775,78.8,83,90,11.5,CK,1618814888
