City,Lat,Lng,Max Temp,Humidity,Cloudiness,Wind Speed,Country,Date
akhmim,26.5622,31.745,75.2,17,0,11.5,EG,1619411363
akita,39.7167,140.1167,48.2,40,20,20.71,JP,1619411140
alghero,40.5589,8.3181,51.8,93,40,1.14,IT,1619411363
anshun,26.25,105.9333,59.49,74,98,4.88,CN,1619411204
aragats,40.4889,44.3528,64.4,52,20,2.3,AM,1619411363
atyrau,47.1167,51.8833,51.8,76,40,22.37,KZ,1619411363
aykhal,66.0,111.5,11.75,90,100,30.53,RU,1619411363
bandarbeyla,9.4942,50.8122,82.71,68,86,5.79,SO,1619411364
bansi,27.1833,82.9333,96.64,11,0,6.98,IN,1619411364
batagay,67.6333,134.6333,32.23,98,100,6.51,RU,1619411365
batagay-alyta,67.8006,130.4114,30.07,89,100,4.16,RU,1619411365
belyy yar,53.6039,91.3903,51.8,28,0,4.47,RU,1619411366
berdigestyakh,62.0989,126.6992,33.94,99,100,7.11,RU,1619411366
berlevag,70.8578,29.0864,33.8,86,75,8.05,NO,1619411366
bhag,29.0415,67.8239,93.2,14,2,2.82,PK,1619411366
bichura,50.5881,107.6022,35.83,85,100,17.65,RU,1619411366
bilma,18.6853,12.9164,84.6,13,5,8.1,NE,1619411366
binzhou,37.3667,118.0167,48.38,87,100,2.71,CN,1619411366
bollnas,61.3482,16.3946,32.0,59,73,1.01,SE,1619411366
bud,62.9088,6.9145,32.0,86,10,5.75,NO,1619411367
butaritari,3.0707,172.7902,83.17,73,16,11.52,KI,1619411367
buturlino,55.5667,44.8974,37.33,68,7,18.7,RU,1619411367
chernyshevskiy,63.0128,112.4714,22.28,66,94,12.97,RU,1619411368
cherskiy,68.75,161.3,22.69,72,91,6.46,RU,1619411368
chokurdakh,70.6333,147.9167,30.9,98,100,10.63,RU,1619411368
daman,20.4167,72.85,88.59,58,8,3.38,IN,1619411368
dandong,40.1292,124.3947,67.24,29,100,13.56,CN,1619411368
deputatskiy,69.3,139.9,28.2,81,74,3.71,RU,1619411368
dharchula,29.85,80.5333,80.38,17,0,4.68,IN,1619411369
do gonbadan,30.3586,50.7981,78.8,24,0,3.15,IR,1619411369
dongying,37.4564,118.4856,48.61,77,100,2.86,CN,1619411276
dustlik,40.5247,68.0358,69.13,31,1,3.42,UZ,1619411369
erenhot,43.6475,111.9767,50.59,10,22,36.69,CN,1619411270
floro,61.5996,5.0328,35.6,64,7,8.05,NO,1619411370
gazanjyk,39.2446,55.5154,78.06,32,2,5.48,TM,1619411370
ha tinh,18.3333,105.9,85.46,73,94,4.83,VN,1619411214
hasaki,35.7333,140.8333,66.0,26,20,10.36,JP,1619411370
havoysund,70.9963,24.6622,32.0,86,75,5.75,NO,1619411370
heiligenhafen,54.3667,10.9833,34.0,93,75,2.3,DE,1619411371
hohhot,40.8106,111.6522,57.2,51,20,20.13,CN,1619411313
imeni poliny osipenko,52.4201,136.4853,53.74,28,76,7.56,RU,1619411422
iwanai,42.9744,140.5089,42.71,50,34,9.8,JP,1619411423
jamsa,61.8642,25.19,33.8,100,90,8.05,FI,1619411423
kampot,10.6167,104.1833,87.8,74,40,5.75,KH,1619411423
kanke,23.4333,85.3167,91.4,27,40,3.44,IN,1619411423
kaseda,31.4167,130.3167,69.8,26,75,5.75,JP,1619411424
katsuura,35.1333,140.3,64.99,25,20,17.27,JP,1619411424
kavieng,-2.5744,150.7967,84.13,67,92,4.32,PG,1619411424
kharp,66.8014,65.8081,33.49,99,100,7.2,RU,1619411424
khatanga,71.9667,102.5,17.24,84,99,17.25,RU,1619411424
khopoli,18.7833,73.3333,91.4,70,68,6.91,IN,1619411425
komsomolskiy,43.9783,46.6985,59.25,64,87,12.55,RU,1619411425
korla,41.7597,86.1469,58.12,15,62,5.95,CN,1619411425
kortkeros,61.8106,51.5806,39.2,81,75,11.18,RU,1619411425
krasnoselkup,65.7,82.4667,29.89,77,51,10.25,RU,1619411425
kula,38.5473,28.6498,47.03,90,87,6.6,TR,1619411425
kungurtug,50.5994,97.5228,33.04,64,100,9.17,RU,1619411426
kutum,14.2,24.6667,73.9,13,46,7.96,SD,1619411426
kyenjojo,0.6328,30.6214,61.83,95,98,0.89,UG,1619411426
leh,34.1667,77.5833,40.8,29,0,2.42,IN,1619411426
leningradskiy,69.3833,178.4167,27.95,89,79,1.48,RU,1619411426
leninskoye,47.9353,132.6242,59.83,21,49,7.99,RU,1619411426
limoux,42.9167,2.1667,55.4,67,0,11.5,FR,1619411426
lokosovo,61.1333,74.8167,45.1,67,89,13.65,RU,1619411426
lugus,5.7036,120.8203,83.1,71,42,6.55,PH,1619411427
meleuz,52.9667,55.9167,46.13,49,40,10.38,RU,1619411427
muravlenko,63.7898,74.523,34.54,99,99,15.59,RU,1619411427
nanjing,32.0617,118.7778,77.0,44,20,6.71,CN,1619411169
natitingou,10.3042,1.3796,78.8,78,0,4.61,BJ,1619411428
nemuro,43.3236,145.575,42.8,26,20,11.5,JP,1619411362
nikolskoye,59.7035,30.7861,39.0,87,90,13.42,RU,1619411428
ningbo,29.8782,121.5495,78.01,41,0,6.71,CN,1619411286
nizhniy mamon,50.1937,40.5083,46.96,49,100,5.57,RU,1619411429
novikovo,51.1537,37.8879,42.33,69,96,4.07,RU,1619411429
odweyne,9.4092,45.064,67.48,87,100,8.97,SO,1619411429
orsha,54.5153,30.4053,28.4,93,13,6.71,BY,1619411429
ostersund,63.1792,14.6357,28.0,74,0,6.91,SE,1619411429
pachora,20.6667,75.35,100.24,9,88,6.35,IN,1619411429
pala,9.3642,14.9046,79.92,50,100,5.41,TD,1619411430
parabel,58.6978,81.4825,45.28,79,100,8.61,RU,1619411430
patiya,22.2931,91.9762,89.6,70,40,9.22,BD,1619411430
pietarsaari,63.65,22.6833,32.0,86,90,18.41,FI,1619411430
podyuga,61.095,40.8647,39.34,96,100,3.98,RU,1619411430
puro,12.4841,123.3827,85.08,60,77,9.73,PH,1619411430
rayagada,19.1667,83.4167,102.07,22,46,2.39,IN,1619411482
riyadh,24.6877,46.7219,82.4,100,20,6.91,SA,1619411195
rovaniemi,66.5,25.7167,26.6,74,20,11.5,FI,1619411483
sabzevar,36.2126,57.6819,71.6,26,0,18.41,IR,1619411483
sakakah,29.9697,40.2064,73.4,25,0,6.91,SA,1619411483
salalah,17.0151,54.0924,84.2,70,40,2.3,OM,1619411484
saskylakh,71.9167,114.0833,14.41,89,100,20.69,RU,1619411484
seoul,37.5683,126.9778,69.8,45,75,3.44,KR,1619411244
shebunino,46.4339,141.8603,39.45,57,6,10.69,RU,1619411484
shingu,33.7333,135.9833,62.6,45,0,18.41,JP,1619411418
shostka,51.863,33.4698,36.93,58,100,2.37,UA,1619411484
shumskiy,54.8318,99.1328,42.98,59,99,14.83,RU,1619411485
si satchanalai,17.5169,99.7598,78.8,89,75,1.14,TH,1619411485
snasa,64.2457,12.3778,30.2,100,75,2.3,NO,1619411485
sobolevo,54.4299,31.8996,34.75,70,11,8.52,RU,1619411485
solnechnyy,50.7214,136.6319,52.81,32,75,4.14,RU,1619411485
srednekolymsk,67.45,153.6833,27.19,66,13,8.41,RU,1619411485
stolbishche,55.6468,49.216,39.2,60,0,20.13,RU,1619411485
suratgarh,29.3167,73.9,96.66,7,0,6.15,IN,1619411485
tabuk,28.3833,36.5833,66.2,27,0,4.61,SA,1619411486
tahta,26.7693,31.5021,75.2,17,0,11.5,EG,1619411486
takanabe,32.1333,131.5,64.4,45,75,11.5,JP,1619411486
talnakh,69.4865,88.3972,11.82,84,99,9.33,RU,1619411486
tateyama,34.9833,139.8667,60.8,25,20,17.27,JP,1619411486
tazovskiy,67.4667,78.7,26.42,91,100,14.65,RU,1619411487
tessalit,20.1986,1.0114,82.8,9,8,8.32,ML,1619411487
tilichiki,60.4667,166.1,31.69,97,100,5.57,RU,1619411487
tuyen quang,21.8233,105.2181,81.99,81,98,6.02,VN,1619411200
ugoofaaru,5.6667,73.0,83.64,70,5,2.48,MV,1619411488
ulaangom,49.9811,92.0667,39.92,49,2,1.21,MN,1619411488
umm lajj,25.0213,37.2685,81.97,50,0,4.03,SA,1619411488
urumqi,43.801,87.6005,53.6,16,0,4.47,CN,1619411420
victoria,-4.6167,55.45,86.0,74,40,6.91,SC,1619411488
vilyuysk,63.7553,121.6247,30.2,95,100,10.49,RU,1619411488
vitim,59.4511,112.5578,36.3,99,100,7.11,RU,1619411488
vostok,46.4856,135.8833,49.44,25,9,8.46,RU,1619411489
vrbas,45.5714,19.6408,46.4,71,0,8.05,RS,1619411489
wattegama,6.7989,81.4808,87.8,79,40,6.91,LK,1619411489
yadgir,16.7667,77.1333,97.88,18,44,11.1,IN,1619411490
yakeshi,49.2833,120.7333,60.55,46,100,15.84,CN,1619411490
yar-sale,66.8333,70.8333,33.57,99,100,15.26,RU,1619411490
yatou,37.15,122.3833,62.02,57,55,13.24,CN,1619411490
yebaishou,41.3975,119.6408,66.69,35,100,16.06,CN,1619411490
yerbogachen,61.2767,108.0108,29.46,55,96,13.98,RU,1619411490
zonguldak,41.25,31.8333,43.18,97,100,3.47,TR,1619411491
acarau,-2.8856,-40.12,76.68,84,7,7.61,BR,1619411542
alice town,25.7167,-79.3,80.24,76,0,17.11,BS,1619411543
anderson,34.5334,-82.6499,59.0,58,40,5.75,US,1619411543
aquin,18.2833,-73.4,75.07,85,14,2.08,HT,1619411543
araouane,18.9048,-3.5265,87.44,14,39,7.7,ML,1619411543
astoria,46.1879,-123.8313,48.99,81,75,4.14,US,1619411543
atuona,-9.8,-139.0333,79.95,76,77,19.13,PF,1619411544
barrow,71.2906,-156.7887,21.2,79,1,11.5,US,1619411544
bethel,41.3712,-73.414,53.6,50,40,5.75,US,1619411544
billings,45.7833,-108.5007,45.0,93,90,4.61,US,1619411544
bonavista,48.6499,-53.1147,37.99,75,15,5.75,CA,1619411544
bonfim,3.0833,-59.95,76.24,85,96,7.14,BR,1619411544
botwood,49.1499,-55.3482,37.0,83,48,3.36,CA,1619411544
boulder city,35.9786,-114.8325,69.8,17,1,11.5,US,1619411545
brae,60.3964,-1.353,44.6,93,100,9.22,GB,1619411545
bubaque,11.2833,-15.8333,77.11,67,27,10.04,GW,1619411545
bullhead city,35.1478,-114.5683,80.6,12,1,21.85,US,1619411545
burgeo,47.6167,-57.6152,39.6,86,100,13.6,CA,1619411545
cabo san lucas,22.8909,-109.9124,73.0,36,100,11.74,MX,1619411545
camacha,33.0833,-16.3333,62.6,77,40,17.27,PT,1619411545
canico,32.6333,-16.85,60.8,77,20,5.75,PT,1619411545
cayenne,4.9333,-52.3333,77.0,94,75,8.05,GF,1619411546
clyde river,70.4692,-68.5914,23.0,93,90,10.36,CA,1619411546
cockburn town,21.4612,-71.1419,78.15,77,32,17.85,TC,1619411546
college,64.8569,-147.8028,64.4,19,20,2.73,US,1619411546
conakry,9.538,-13.6773,78.8,83,0,10.63,GN,1619411546
constitucion,23.9912,-104.6749,62.83,36,100,8.14,MX,1619411546
cururupu,-1.8283,-44.8683,73.89,94,66,2.19,BR,1619411547
dingle,52.1408,-10.2689,45.5,69,29,5.01,IE,1619411547
dire,12.2833,-10.9667,83.61,38,23,3.96,ML,1619411547
edenderry,53.3453,-7.0497,35.01,89,13,0.65,IE,1619411547
egvekinot,66.3167,-179.1667,27.34,90,18,0.78,RU,1619411547
el puerto de santa maria,36.5939,-6.233,62.6,94,20,6.91,ES,1619411547
emporia,38.4039,-96.1817,66.2,55,1,13.8,US,1619411547
espanola,46.2584,-81.7665,30.2,55,7,4.61,CA,1619411548
eureka,40.8021,-124.1637,48.99,82,69,1.01,US,1619411548
ewa beach,21.3156,-158.0072,80.01,57,20,9.22,US,1619411548
fairbanks,64.8378,-147.7164,64.4,20,1,4.61,US,1619411548
fayetteville,35.0527,-78.8784,60.01,55,1,5.75,US,1619411548
fort nelson,58.8053,-122.7002,48.2,25,75,19.57,CA,1619411548
fortuna,40.5982,-124.1573,48.99,93,90,3.51,US,1619411548
glace bay,46.1969,-59.957,48.0,87,90,8.05,CA,1619411548
grand-santi,4.25,-54.3833,73.08,99,100,1.03,GF,1619411549
guane,22.2025,-84.0875,73.4,90,7,2.19,CU,1619411549
guerrero negro,27.9769,-114.0611,58.75,83,100,10.33,MX,1619411549
haines junction,60.7522,-137.5108,46.4,34,0,4.61,CA,1619411549
half moon bay,37.4636,-122.4286,51.8,93,20,5.19,US,1619411549
halifax,44.6453,-63.5724,48.99,100,100,19.57,CA,1619411549
hamilton,32.2915,-64.778,68.0,94,90,16.11,BM,1619411602
hamilton,39.1834,-84.5333,46.0,87,1,3.4,US,1619411603
hanna,51.6334,-111.9018,37.0,60,100,3.0,CA,1619411603
hastings,40.5861,-98.3884,64.4,63,1,13.8,US,1619411603
havre-saint-pierre,50.2334,-63.5986,35.6,87,40,9.22,CA,1619411603
hermiston,45.8404,-119.2895,55.4,47,1,6.91,US,1619411603
high level,58.5169,-117.136,39.2,48,75,10.36,CA,1619411603
hilo,19.7297,-155.09,73.4,83,90,6.91,US,1619411603
hilton head island,32.2163,-80.7526,64.99,94,90,7.54,US,1619411603
hofn,64.2539,-15.2082,41.97,71,8,10.8,IS,1619411604
huntington beach,33.6603,-117.9992,60.01,77,20,9.22,US,1619411604
husavik,66.0449,-17.3389,35.6,87,75,8.05,IS,1619411604
ilulissat,69.2167,-51.1,48.2,43,75,27.63,GL,1619411604
inuvik,68.3499,-133.7218,14.0,85,84,6.91,CA,1619411604
iqaluit,63.7506,-68.5145,32.0,93,90,3.44,CA,1619411604
itarema,-2.9248,-39.9167,76.23,85,9,6.93,BR,1619411604
kahului,20.8947,-156.47,73.4,83,40,18.41,US,1619411605
kailua,21.4022,-157.7394,78.8,64,90,9.22,US,1619411605
kapaa,22.0752,-159.319,75.2,73,40,13.8,US,1619411605
kita,13.0349,-9.4895,86.56,32,98,1.12,ML,1619411605
klaksvik,62.2266,-6.589,42.8,100,100,19.57,FO,1619411605
kodiak,57.79,-152.4072,42.8,81,1,9.22,US,1619411605
kouroussa,10.65,-9.8833,78.03,61,75,6.8,GN,1619411605
la ronge,55.1001,-105.2842,33.8,59,100,9.22,CA,1619411606
lagoa,39.05,-27.9833,58.73,85,100,9.84,PT,1619411606
lavrentiya,65.5833,-171.0,31.8,92,98,1.21,RU,1619411606
leesburg,39.1157,-77.5636,53.6,58,1,8.05,US,1619411606
livingston,40.7959,-74.3149,57.2,62,40,3.44,US,1619411606
lompoc,34.6391,-120.4579,51.8,87,100,4.61,US,1619411606
marienburg,5.8469,-55.0216,77.0,94,94,5.26,SR,1619411607
marsh harbour,26.5412,-77.0636,78.42,73,0,8.23,BS,1619411607
matagami,49.7502,-77.6328,19.4,86,20,14.97,CA,1619411607
miraflores,1.3367,-71.9511,72.81,95,86,2.3,CO,1619411607
monrovia,6.3005,-10.7969,77.0,94,75,4.81,LR,1619411607
montrose,38.4166,-108.2673,64.4,11,1,12.66,US,1619411608
nanortalik,60.1432,-45.2371,35.91,98,100,5.86,GL,1619411608
nantucket,41.2835,-70.0995,46.4,93,1,16.11,US,1619411608
narsaq,60.9167,-46.05,50.0,32,90,29.93,GL,1619411608
nicoya,10.1483,-85.452,80.6,54,0,11.5,CR,1619411608
nome,64.5011,-165.4064,44.6,57,90,5.75,US,1619411596
norman wells,65.282,-126.8329,28.4,46,40,6.91,CA,1619411608
north bend,43.4065,-124.2243,48.2,87,90,3.44,US,1619411609
olafsvik,64.8945,-23.7142,39.54,87,11,11.79,IS,1619411609
orocue,4.7912,-71.3354,82.36,68,92,3.24,CO,1619411609
oussouye,12.485,-16.5469,71.6,78,0,4.61,SN,1619411609
paamiut,61.994,-49.6678,33.31,99,100,6.24,GL,1619411609
pangnirtung,66.1451,-65.7125,30.56,79,98,6.53,CA,1619411609
penzance,50.1186,-5.5371,46.0,81,40,22.7,GB,1619411662
petatlan,17.5167,-101.2667,76.41,69,98,2.59,MX,1619411663
pinawa,50.1489,-95.8811,37.76,70,100,7.29,CA,1619411663
ponta do sol,17.1994,-25.0919,69.8,68,40,10.36,CV,1619411663
ponta do sol,32.6667,-17.1,59.0,83,44,3.0,PT,1619411663
porto santo,33.072,-16.3415,62.6,77,40,17.27,PT,1619411663
price,39.5994,-110.8107,60.8,17,1,6.91,US,1619411663
provideniya,64.3833,-173.3,33.8,75,0,6.71,RU,1619411663
puerto ayacucho,5.6639,-67.6236,75.07,87,100,3.42,VE,1619411664
puerto ayora,-0.7393,-90.3518,74.43,88,4,6.73,EC,1619411664
puerto escondido,15.85,-97.0667,81.41,81,94,6.46,MX,1619411664
qaanaaq,77.484,-69.3632,28.4,62,10,9.82,GL,1619411664
ramos arizpe,25.55,-100.9667,69.8,35,1,6.91,MX,1619411664
rapid city,44.0805,-103.231,53.01,71,75,6.91,US,1619411664
redmond,47.674,-122.1215,51.01,95,96,0.85,US,1619411664
ribeira grande,38.5167,-28.7,59.0,72,20,4.61,PT,1619411665
sagua la grande,22.8067,-80.0756,77.0,44,40,1.14,CU,1619411665
saint george,32.3817,-64.6781,68.0,94,90,16.11,BM,1619411665
saint george,37.1041,-113.5841,70.0,14,1,4.47,US,1619411665
saint-augustin,51.226,-58.6502,34.07,83,21,3.29,CA,1619411665
saint-georges,3.9,-51.8,73.02,99,100,1.25,GF,1619411665
saint-pierre,46.7654,-56.1695,38.17,89,100,16.69,PM,1619411665
san diego de los banos,22.6467,-83.3697,72.19,90,21,1.92,CU,1619411666
san juan de arama,3.3464,-73.8894,71.67,90,97,2.42,CO,1619411666
san patricio,19.2167,-104.7,73.22,87,56,3.58,MX,1619411666
san pedro,17.916,-87.9659,81.0,81,6,4.0,BZ,1619411667
san quintin,30.4833,-115.95,57.02,85,25,12.71,MX,1619411667
santa isabel do rio negro,-0.4139,-65.0192,73.85,98,93,2.57,BR,1619411667
sao filipe,14.8961,-24.4956,71.74,71,83,9.4,CV,1619411667
sarnia,42.9787,-82.4041,33.8,75,1,10.36,CA,1619411667
sinnamary,5.3833,-52.95,76.84,90,100,9.53,GF,1619411667
sioux lookout,50.1001,-91.917,39.2,38,75,10.36,CA,1619411667
sitka,57.0531,-135.33,55.4,50,1,3.44,US,1619411668
stromness,58.965,-3.296,44.6,93,75,5.75,GB,1619411668
tabou,4.423,-7.3528,76.05,89,100,4.76,CI,1619411668
talavera de la reina,39.9635,-4.8308,51.66,90,89,0.6,ES,1619411668
taoudenni,22.6783,-3.9836,84.25,16,8,9.31,ML,1619411668
tasiilaq,65.6145,-37.6368,37.4,70,75,17.27,GL,1619411668
thompson,55.7435,-97.8558,30.2,93,90,3.44,CA,1619411668
torbay,47.6666,-52.7314,39.99,70,1,6.91,CA,1619411669
touros,-5.1989,-35.4608,75.2,94,20,4.61,BR,1619411669
tuktoyaktuk,69.4541,-133.0374,14.0,79,90,8.05,CA,1619411669
upernavik,72.7868,-56.1549,27.86,71,49,3.98,GL,1619411669
vestmanna,62.1564,-7.1664,42.8,100,100,19.57,FO,1619411670
worland,44.0169,-107.9554,55.4,47,90,11.5,US,1619411670
yellowknife,62.456,-114.3525,6.8,78,90,12.66,CA,1619411670
yuma,32.7253,-114.6244,78.8,19,1,13.8,US,1619411670
ahipara,-35.1667,173.1667,61.65,69,28,7.54,NZ,1619411722
aitape,-3.1374,142.3475,85.3,63,77,5.53,PG,1619411723
albany,-35.0169,117.8917,77.0,53,92,8.05,AU,1619411723
alice springs,-23.7,133.8833,78.8,22,0,12.66,AU,1619411465
alyangula,-13.8483,136.4192,77.0,100,75,6.91,AU,1619411723
amahai,-3.3333,128.9167,85.17,60,8,5.82,ID,1619411723
angoche,-16.2325,39.9086,75.47,90,77,3.87,MZ,1619411723
aranos,-24.1333,19.1167,61.3,26,12,10.67,NA,1619411723
auki,-8.7676,160.7034,83.66,73,100,4.7,SB,1619411724
bairiki,1.3292,172.9752,84.2,79,40,9.22,KI,1619411724
ballina,-28.8667,153.5667,71.6,64,40,11.5,AU,1619411724
bambanglipuro,-7.95,110.2833,85.44,65,12,9.1,ID,1619411725
bambous virieux,-20.3428,57.7575,77.0,88,75,14.97,MU,1619411725
banjarmasin,-3.3244,114.591,87.8,70,40,4.61,ID,1619411725
barabai,-2.5833,115.3833,93.4,50,62,1.68,ID,1619411725
beira,-19.8436,34.8389,71.6,94,20,5.48,MZ,1619411726
beloha,-25.1667,45.05,76.14,62,0,6.87,MG,1619411726
bengkulu,-3.8004,102.2655,84.99,69,43,9.06,ID,1619411726
bima,-8.4667,118.7167,85.28,68,38,4.47,ID,1619411726
bluff,-46.6,168.3333,48.0,68,81,14.0,NZ,1619411726
bredasdorp,-34.5322,20.0403,51.8,93,79,2.3,ZA,1619411727
broken hill,-31.95,141.4333,69.8,37,0,11.5,AU,1619411728
broome,-17.9667,122.2333,89.6,13,0,12.66,AU,1619411728
buala,-8.145,159.5921,84.88,71,76,3.18,SB,1619411728
burnie,-41.0667,145.9167,61.0,61,21,15.01,AU,1619411728
busselton,-33.65,115.3333,79.0,45,99,5.01,AU,1619411728
byron bay,-28.65,153.6167,71.6,64,40,11.5,AU,1619411564
calvinia,-31.4707,19.776,64.13,45,100,3.31,ZA,1619411728
cape town,-33.9258,18.4232,62.01,88,20,6.91,ZA,1619411711
carnarvon,-24.8667,113.6333,93.2,18,0,5.75,AU,1619411729
chake chake,-5.2459,39.7666,79.02,85,82,9.28,TZ,1619411729
chanika,-5.4167,38.0167,68.81,94,99,3.24,TZ,1619411729
charters towers,-20.1,146.2667,74.82,64,98,10.47,AU,1619411729
chato,-2.6378,31.7669,65.08,94,100,4.68,TZ,1619411729
chimoio,-19.1164,33.4833,66.2,94,20,3.29,MZ,1619411729
chokwe,-24.5333,32.9833,67.53,91,0,2.71,MZ,1619411729
cuamba,-14.8031,36.5372,67.86,94,62,0.31,MZ,1619411730
daru,-9.0763,143.2092,80.29,78,99,4.27,PG,1619411730
east london,-33.0153,27.9116,66.2,52,0,5.75,ZA,1619411730
esperance,-33.8667,121.9,86.0,20,45,13.8,AU,1619411730
flinders,-34.5833,150.8552,71.6,33,0,6.91,AU,1619411730
gamba,-2.65,10.0,76.64,90,65,3.36,GA,1619411730
geraldton,-28.7667,114.6,86.0,26,21,11.5,AU,1619411730
gizo,-8.103,156.8419,84.6,69,26,3.94,SB,1619411731
grootfontein,-19.5667,18.1167,53.83,35,0,3.42,NA,1619411731
henties bay,-22.116,14.2845,60.01,93,2,1.99,NA,1619411731
hermanus,-34.4187,19.2345,60.01,91,1,1.99,ZA,1619411782
hervey bay,-25.2986,152.8535,77.0,60,56,5.01,AU,1619411783
hithadhoo,-0.6,73.0833,82.89,66,64,4.36,MV,1619411783
hobart,-42.8794,147.3294,66.2,42,40,17.27,AU,1619411783
hokitika,-42.7167,170.9667,55.13,81,96,19.37,NZ,1619411783
ikalamavony,-21.15,46.5833,68.65,76,99,5.95,MG,1619411783
ilebo,-4.3167,20.5833,70.11,99,100,1.99,CD,1619411783
inhambane,-23.865,35.3833,69.66,89,0,3.85,MZ,1619411783
inongo,-1.95,18.2667,71.47,96,100,3.2,CD,1619411784
isangel,-19.55,169.2667,82.4,74,75,11.5,VU,1619411784
itigi,-5.7,34.4833,62.73,94,54,6.33,TZ,1619411784
jamestown,-15.9387,-5.7168,69.57,75,8,15.68,SH,1619411784
kaeo,-35.1,173.7833,64.0,68,13,5.99,NZ,1619411784
kasongo-lunda,-6.4667,16.8167,69.19,97,78,0.54,CD,1619411784
katobu,-4.9408,122.5276,90.5,47,45,2.37,ID,1619411784
kingaroy,-26.5333,151.8333,75.99,31,0,5.75,AU,1619411785
kinkala,-4.3614,14.7644,75.2,94,20,5.75,CG,1619411785
kinshasa,-4.3246,15.3215,75.2,94,20,5.75,CD,1619411492
kirakira,-10.4544,161.9205,84.49,73,78,0.2,SB,1619411785
kiunga,-6.1219,141.2906,92.17,47,76,3.24,PG,1619411785
kokstad,-30.5472,29.4241,51.55,46,73,5.48,ZA,1619411785
kruisfontein,-34.0033,24.7314,65.05,48,100,1.88,ZA,1619411785
kununurra,-15.7667,128.7333,91.4,33,40,9.22,AU,1619411744
kupang,-10.1667,123.5833,84.25,45,87,10.76,ID,1619411786
labuhan,-6.8844,112.2051,87.3,60,2,10.42,ID,1619411786
launceston,-41.45,147.1667,68.0,48,40,6.91,AU,1619411728
lodja,-3.4833,23.4333,68.95,99,100,0.92,CD,1619411787
lucapa,-8.4192,20.7447,65.07,95,83,2.1,AO,1619411787
luderitz,-26.6481,15.1594,61.83,87,97,2.91,NA,1619411787
luganville,-15.5333,167.1667,82.06,80,56,6.8,VU,1619411787
machinga,-15.1685,35.3,67.66,87,17,2.57,MW,1619411788
mackay,-21.15,149.2,77.0,69,75,17.27,AU,1619411554
madimba,-10.4,40.3333,73.4,100,40,13.8,TZ,1619411788
mahebourg,-20.4081,57.7,77.0,88,75,14.97,MU,1619411788
majene,-3.5403,118.9707,87.33,61,96,8.43,ID,1619411788
makasar,-5.14,119.4221,91.4,62,20,4.61,ID,1619411566
mareeba,-17.0,145.4333,75.2,94,90,12.66,AU,1619411788
mbarara,-0.608,30.65,63.0,86,97,1.95,UG,1619411788
missungwi,-2.85,33.0833,68.0,88,75,11.5,TZ,1619411789
mkuranga,-7.118,39.2078,75.2,100,40,9.22,TZ,1619411789
mlimba,-8.8,35.8167,71.67,98,99,0.43,TZ,1619411789
moindou,-21.6924,165.677,77.0,65,20,13.8,NC,1619411789
moranbah,-22.0016,148.0466,79.79,35,35,13.2,AU,1619411789
mount gambier,-37.8333,140.7667,59.0,77,90,9.22,AU,1619411789
mount isa,-20.7333,139.5,89.6,31,40,9.22,AU,1619411789
mutoko,-17.397,32.2268,59.54,68,55,2.75,ZW,1619411789
mwingi,-0.9344,38.0601,69.1,84,23,4.81,KE,1619411790
namatanai,-3.6667,152.4333,84.13,68,98,4.72,PG,1619411790
namibe,-15.1961,12.1522,74.79,69,0,8.08,AO,1619411790
ngunguru,-35.6167,174.5,64.0,68,39,5.99,NZ,1619411843
nhulunbuy,-12.2333,136.7667,82.4,78,40,5.75,AU,1619411843
northam,-31.6667,116.6667,88.0,19,7,5.75,AU,1619411843
oranjemund,-28.55,16.4333,62.74,84,100,6.13,NA,1619411843
padang,-0.9492,100.3543,87.8,66,40,5.75,ID,1619411593
pangkalanbuun,-2.6833,111.6167,89.92,58,55,3.89,ID,1619411843
pontianak,-0.0333,109.3333,89.6,66,75,8.05,ID,1619411644
port alfred,-33.5906,26.891,71.47,43,95,6.76,ZA,1619411844
port augusta,-32.5,137.7667,69.8,60,2,11.5,AU,1619411844
port hedland,-20.3167,118.5667,91.4,10,0,13.8,AU,1619411839
port lincoln,-34.7333,135.8667,66.36,63,2,9.22,AU,1619411844
port macquarie,-31.4333,152.9167,72.0,60,10,1.99,AU,1619411652
portland,-38.3333,141.6,60.31,66,99,8.88,AU,1619411844
poum,-20.2333,164.0167,77.43,69,39,23.85,NC,1619411844
quatre cocos,-20.2078,57.7625,77.0,88,75,14.97,MU,1619411845
rehoboth,-23.3167,17.0833,61.21,40,38,5.12,NA,1619411845
richards bay,-28.783,32.0377,64.78,88,3,4.21,ZA,1619411845
roma,-26.5833,148.7833,74.53,21,0,6.6,AU,1619411845
saint-denis,-20.8667,55.4667,77.0,73,0,13.8,RE,1619411845
saint-philippe,-21.3585,55.7679,78.8,69,0,18.41,RE,1619411845
saldanha,-33.0117,17.9442,60.8,94,10,10.36,ZA,1619411809
samarai,-10.6167,150.6667,85.39,71,78,12.73,PG,1619411846
sambava,-14.2667,50.1667,76.15,81,100,7.11,MG,1619411846
serowe,-22.3833,26.7167,59.4,33,0,2.75,BW,1619411846
sola,-13.8833,167.55,87.8,74,40,5.75,VU,1619411846
souillac,-20.5167,57.5167,77.0,88,75,14.97,MU,1619411846
soyo,-6.1349,12.3689,77.83,86,41,2.75,AO,1619411807
sumenep,-7.0167,113.8667,86.25,64,7,11.97,ID,1619411785
tairua,-37.0167,175.85,63.0,68,58,11.01,NZ,1619411847
te anau,-45.4167,167.7167,44.44,79,85,5.79,NZ,1619411847
thinadhoo,0.5333,72.9333,82.65,63,59,2.95,MV,1619411848
touho,-20.7833,165.2333,78.03,68,59,8.48,NC,1619411848
tsiroanomandidy,-18.7667,46.0333,67.64,82,88,3.67,MG,1619411848
tual,-5.6667,132.75,83.21,70,74,9.06,ID,1619411848
tuatapere,-46.1333,167.6833,48.0,68,94,14.0,NZ,1619411848
ulverstone,-41.15,146.1667,66.0,62,21,18.01,AU,1619411848
vao,-22.6667,167.4833,74.43,71,46,15.84,NC,1619411849
victor harbor,-35.5667,138.6167,63.0,78,12,7.07,AU,1619411849
waipawa,-41.4122,175.5153,60.8,48,11,13.8,NZ,1619411850
wollongong,-34.4333,150.8833,73.99,45,1,1.99,AU,1619411850
yulara,-25.2406,130.9889,77.0,20,0,11.5,AU,1619411850
alofi,-19.0595,-169.9187,84.2,74,84,3.44,NU,1619411859
alta floresta,-9.8756,-56.0861,69.87,98,97,3.78,BR,1619411903
altamira,-3.2033,-52.2064,71.96,97,93,0.51,BR,1619411903
amarante do maranhao,-5.5667,-46.7422,71.65,96,100,0.72,BR,1619411903
america dourada,-11.4553,-41.4361,68.2,87,100,4.97,BR,1619411903
ancud,-41.8697,-73.8203,52.0,100,90,5.75,CL,1619411903
antofagasta,-23.65,-70.4,57.2,82,0,4.61,CL,1619411903
aquiraz,-3.9014,-38.3911,78.8,89,0,3.44,BR,1619411903
aripuana,-9.1667,-60.6333,71.4,98,100,3.51,BR,1619411858
arraial do cabo,-22.9661,-42.0278,73.76,88,50,8.19,BR,1619411904
avarua,-21.2078,-159.775,80.6,78,75,5.75,CK,1619411904
ayna,-12.65,-73.9167,57.42,87,14,3.24,PE,1619411904
azul,-36.777,-59.8585,54.59,84,100,4.59,AR,1619411838
bahia de caraquez,-0.6,-80.4167,77.0,78,0,2.3,EC,1619411860
baiao,-2.7906,-49.6717,72.86,97,64,2.26,BR,1619411904
barreiros,-8.8183,-35.1864,76.44,85,60,5.06,BR,1619411905
bataipora,-22.2953,-53.2711,63.52,92,91,4.36,BR,1619411905
bella union,-30.2752,-57.6007,51.31,80,0,6.93,UY,1619411905
belmonte,-15.8631,-38.8828,75.2,83,40,3.44,BR,1619411905
benjamin aceval,-24.9667,-57.5667,59.0,94,0,3.44,PY,1619411905
bom jesus,-9.0744,-44.3586,72.97,87,100,1.7,BR,1619411905
boquira,-12.8231,-42.7306,72.57,74,96,2.57,BR,1619411905
buchanan,5.8808,-10.0467,77.0,94,75,1.45,LR,1619411810
buena vista,-26.1833,-56.0833,54.14,94,0,2.42,PY,1619411906
caceres,-16.0706,-57.6789,66.99,97,100,2.91,BR,1619411906
calama,-22.4667,-68.9333,41.0,33,0,19.57,CL,1619411828
camana,-16.6228,-72.7111,67.46,85,22,7.11,PE,1619411906
campoverde,-8.4753,-74.8058,71.46,98,33,2.24,PE,1619411906
canavieiras,-15.675,-38.9472,73.6,88,9,3.53,BR,1619411855
caravelas,-17.7125,-39.2481,74.12,87,3,6.29,BR,1619411907
careiro da varzea,-3.2003,-59.8119,80.6,89,0,3.44,BR,1619411907
carutapera,-1.195,-46.02,75.58,91,58,4.43,BR,1619411907
castro,-42.4721,-73.7732,52.0,100,90,5.75,CL,1619411907
catamarca,-28.4696,-65.7852,57.0,91,0,1.99,AR,1619411907
cavalcante,-13.7975,-47.4583,68.23,82,100,1.36,BR,1619411907
chicama,-7.8447,-79.1469,67.35,82,11,7.25,PE,1619411907
chimbote,-9.0853,-78.5783,65.05,90,11,7.94,PE,1619411827
chuy,-33.6971,-53.4616,59.16,77,60,8.1,UY,1619411908
cidreira,-30.1811,-50.2056,62.51,68,53,12.48,BR,1619411908
coihaique,-45.5752,-72.0662,45.21,96,78,5.5,CL,1619411908
comodoro rivadavia,-45.8667,-67.5,51.8,71,0,2.3,AR,1619411908
conceicao do araguaia,-8.2578,-49.2647,73.4,94,0,2.3,BR,1619411811
conde,-7.2597,-34.9075,75.2,94,20,4.61,BR,1619411908
conselheiro pena,-19.1722,-41.4722,70.9,89,54,2.01,BR,1619411908
coquimbo,-29.9533,-71.3436,53.6,87,0,2.3,CL,1619411909
coxim,-18.5067,-54.76,67.98,96,100,3.11,BR,1619411846
extrema,-22.8547,-46.3183,66.2,88,0,5.75,BR,1619411909
faanui,-16.4833,-151.75,81.48,63,14,2.64,PF,1619411962
fare,-16.7,-151.0167,81.57,63,3,1.39,PF,1619411963
florida,-33.8333,-55.9167,51.71,90,14,7.4,UY,1619411963
formosa,-26.1775,-58.1781,57.2,100,0,4.61,AR,1619411963
fuerte olimpo,-21.0415,-57.8738,69.13,74,100,4.65,PY,1619411862
general roca,-39.0333,-67.5833,55.4,76,0,8.86,AR,1619411963
georgetown,-7.9333,-14.4167,79.36,66,100,13.78,SH,1619411963
hualmay,-11.0964,-77.6139,65.62,89,15,7.16,PE,1619411859
huarmey,-10.0681,-78.1522,66.94,86,12,8.43,PE,1619411824
ilhabela,-23.7781,-45.3581,71.96,77,93,2.04,BR,1619411860
iquique,-20.2208,-70.1431,62.6,63,0,2.3,CL,1619411964
iquitos,-3.7481,-73.2472,78.8,89,0,4.61,PE,1619411848
itaituba,-4.2761,-55.9836,73.06,98,82,1.39,BR,1619411845
ixtapa,20.7,-105.2,78.01,78,40,2.01,MX,1619411965
juruti,-2.1522,-56.0922,75.04,93,99,2.28,BR,1619411965
jutai,-5.1833,-68.9,72.19,98,100,2.01,BR,1619411965
lages,-27.8161,-50.3261,50.13,99,56,2.8,BR,1619411965
laguna,-28.4825,-48.7808,67.03,80,92,10.92,BR,1619411966
lebu,-37.6167,-73.65,53.92,93,21,10.16,CL,1619411838
macusani,-14.0833,-70.4333,32.74,89,56,3.76,PE,1619411966
maldonado,-34.6667,-54.9167,64.4,68,20,18.41,UY,1619411863
mar del plata,-38.0023,-57.5575,60.01,88,75,3.44,AR,1619411966
mayor pablo lagerenza,-19.9309,-60.7718,61.27,92,65,4.68,PY,1619411967
mineiros,-17.5694,-52.5511,64.26,68,87,3.74,BR,1619411854
mineros,-17.1167,-63.2333,64.4,94,39,6.91,BO,1619411967
moerai,-22.4333,-151.3333,76.93,62,78,7.58,PF,1619411967
morros,-9.4467,-46.3003,71.44,90,100,1.3,BR,1619411968
natal,-5.795,-35.2094,77.0,88,40,3.44,BR,1619411807
necochea,-38.5473,-58.7368,55.0,92,48,4.18,AR,1619411838
neuquen,-38.9516,-68.0591,55.4,76,0,7.27,AR,1619411968
nisia floresta,-6.0911,-35.2086,77.0,88,40,3.44,BR,1619411968
nunoa,-14.48,-70.6411,36.45,82,9,3.96,PE,1619411968
pacasmayo,-7.4006,-79.5714,67.01,83,34,13.02,PE,1619411840
paita,-5.0892,-81.1144,69.85,77,59,11.72,PE,1619411968
palmas de monte alto,-14.2672,-43.1619,74.71,71,83,2.35,BR,1619411969
passo de camaragibe,-9.2368,-35.4901,73.4,94,0,4.61,BR,1619411969
pimenteiras,-6.2453,-41.4192,71.38,83,73,2.53,BR,1619411969
pimentel,-6.8367,-79.9342,64.0,86,29,5.01,PE,1619411969
pio xii,-3.8325,-45.1525,72.82,98,39,2.26,BR,1619411970
pirassununga,-21.9961,-47.4258,63.18,66,95,1.32,BR,1619411970
pisco,-13.7,-76.2167,64.0,88,0,1.14,PE,1619411970
pitimbu,-7.4706,-34.8086,75.2,94,20,4.61,BR,1619411970
pozo colorado,-23.4923,-58.7972,58.39,88,6,5.44,PY,1619411970
puerto leguizamo,-0.1934,-74.7819,72.64,97,100,0.83,CO,1619412023
punta alta,-38.8759,-62.0736,55.54,79,1,7.34,AR,1619412023
punta arenas,-53.15,-70.9167,44.6,93,90,5.75,CL,1619412023
rawson,-43.3002,-65.1023,58.68,54,26,15.73,AR,1619411832
reconquista,-29.15,-59.65,51.03,76,0,5.32,AR,1619411811
ribeira do pombal,-10.8344,-38.5358,70.07,97,59,3.24,BR,1619412023
rikitea,-23.1203,-134.9692,77.81,75,33,5.19,PF,1619412023
rio cuarto,-33.1307,-64.3499,51.01,87,0,5.01,AR,1619411830
rio gallegos,-51.6226,-69.2181,51.8,54,40,12.66,AR,1619411832
rio grande,-32.035,-52.0986,59.0,90,54,1.01,BR,1619412024
rocha,-34.4833,-54.3333,57.13,86,67,7.09,UY,1619412024
san carlos de bariloche,-41.1456,-71.3082,44.01,81,0,4.61,AR,1619412025
san cristobal,-0.9045,-89.6174,75.69,88,2,7.29,EC,1619412025
san francisco,-31.428,-62.0827,54.0,87,0,1.72,AR,1619412025
san jose,-17.9389,-63.3516,64.4,94,41,6.91,BO,1619412025
san pedro de ycuamandiyu,-24.0917,-57.0764,59.22,89,43,4.16,PY,1619412025
santa rosa,-36.6167,-64.2833,49.53,79,0,7.0,AR,1619411809
santiago del estero,-27.7951,-64.2615,59.02,68,0,5.97,AR,1619411839
sao felix do xingu,-6.6447,-51.995,71.83,98,93,1.41,BR,1619412026
sao joao da barra,-21.6403,-41.0511,73.22,93,55,4.76,BR,1619411857
sao jose da coroa grande,-8.8978,-35.1478,77.94,81,44,6.87,BR,1619412027
sao mateus,-18.7161,-39.8589,70.65,97,26,2.73,BR,1619411820
sao miguel do araguaia,-13.275,-50.1628,73.56,83,83,3.47,BR,1619412027
sayan,-11.1361,-77.1933,69.35,75,3,1.05,PE,1619412028
sechura,-5.5569,-80.8222,69.93,76,54,13.53,PE,1619412028
sume,-7.6717,-36.88,67.69,97,9,5.7,BR,1619412028
talara,-4.5772,-81.2719,71.64,75,64,14.94,PE,1619411860
taltal,-25.4,-70.4833,60.84,84,0,0.98,CL,1619412028
tapes,-30.6733,-51.3958,58.48,72,0,11.65,BR,1619412028
tautira,-17.7333,-149.15,80.6,74,20,6.91,PF,1619412029
tonantins,-2.8731,-67.8022,73.8,98,96,1.34,BR,1619412029
trelew,-43.249,-65.3051,58.41,52,40,12.06,AR,1619411806
trinidad,-33.5389,-56.8886,51.8,93,0,7.05,UY,1619412029
ushuaia,-54.8,-68.3,46.4,81,90,3.44,AR,1619412030
vacaria,-28.5122,-50.9339,55.0,68,78,3.0,BR,1619412030
vaini,-21.2,-175.2,82.4,89,75,4.61,TO,1619412030
vila velha,-20.3297,-40.2925,77.0,83,0,2.3,BR,1619412030
vilhena,-12.7406,-60.1458,66.9,99,100,4.5,BR,1619411856
villa maria,-32.4075,-63.2402,48.0,87,0,1.99,AR,1619412030
yurimaguas,-5.9,-76.0833,73.42,97,74,1.14,PE,1619411803
