City,Lat,Lng,Max Temp,Humidity,Cloudiness,Wind Speed,Country,Date
"('tulun', 'ru')",54.5611,100.5792,274.01,42,58,4.17,RU,1618724037
"('baykit', 'ru')",61.67,96.37,271.4,71,100,4.86,RU,1618724038
"('gaozhou', 'cn')",21.9392,110.8461,295.5,82,98,3.79,CN,1618724038
"('koshki', 'ru')",54.2091,50.4677,284.22,42,1,5.76,RU,1618724038
"('kaifeng', 'cn')",34.7911,114.3483,296.15,23,0,4.0,CN,1618723521
"('khatanga', 'ru')",71.9667,102.5,258.66,86,100,5.66,RU,1618724039
"('kulhudhuffushi', 'mv')",6.6221,73.07,301.94,71,56,3.3,MV,1618724039
"('wichian buri', 'th')",15.6578,101.106,305.93,62,50,3.49,TH,1618724040
"('safaga', 'eg')",26.7292,33.9365,296.15,18,0,2.06,EG,1618724040
"('valreas', 'fr')",44.3837,4.9908,280.93,61,0,5.66,FR,1618724040
"('suraabad', 'az')",40.8192,49.4687,290.15,63,0,3.09,AZ,1618724040
"('akdepe', 'tm')",42.0551,59.3788,298.15,22,0,2.06,TM,1618724041
"('zonguldak', 'tr')",41.25,31.8333,283.15,100,75,0.51,TR,1618724041
"('meulaboh', 'id')",4.1363,96.1285,303.11,64,79,2.59,ID,1618724041
"('muroto', 'jp')",33.2833,134.15,289.15,33,75,6.17,JP,1618723925
"('wuzhou', 'cn')",23.4833,111.3167,293.61,84,100,2.59,CN,1618724041
"('lorengau', 'pg')",-2.0226,147.2712,302.2,68,66,3.15,PG,1618724041
"('olden', 'no')",61.8364,6.8064,274.82,67,1,2.9,NO,1618724042
"('nikolskoye', 'ru')",59.7035,30.7861,281.15,46,0,3.0,RU,1618724042
"('kisangani', 'cd')",0.5167,25.2,295.88,96,100,1.59,CD,1618724042
"('bogorodskoye', 'ru')",56.55,37.8833,281.58,58,3,6.48,RU,1618724043
"('carnot', 'cf')",4.9409,15.8665,295.2,89,100,0.83,CF,1618724043
"('mahibadhoo', 'mv')",3.7833,72.9667,301.9,67,78,3.65,MV,1618724043
"('krasnokamensk', 'ru')",50.0979,118.0369,292.22,18,51,7.49,RU,1618724043
"('jibuti', 'dj')",11.5,42.5,302.15,61,20,3.09,DJ,1618724043
"('karasjok', 'no')",69.4719,25.5112,276.15,65,100,5.14,NO,1618724043
"('ostrovnoy', 'ru')",68.0531,39.5131,271.99,75,91,5.53,RU,1618724044
"('abu dhabi', 'ae')",24.4667,54.3667,298.15,61,0,2.06,AE,1618723762
"('chardara', 'kz')",41.2547,67.9692,296.08,28,99,2.97,KZ,1618724044
"('aneho', 'tg')",6.2333,1.6,300.15,78,20,3.09,TG,1618724044
"('namatanai', 'pg')",-3.6667,152.4333,301.9,75,94,6.83,PG,1618724045
"('kargil', 'in')",34.5667,76.1,277.5,39,99,3.04,IN,1618724045
"('moyale', 'et')",3.5242,39.0513,295.79,71,86,5.07,ET,1618724045
"('chokurdakh', 'ru')",70.6333,147.9167,267.77,93,85,4.75,RU,1618724045
"('gravdal', 'no')",68.1214,13.5031,277.7,74,100,4.18,NO,1618724046
"('taitung', 'tw')",22.7583,121.1444,299.15,53,40,10.29,TW,1618723748
"('teguldet', 'ru')",57.3064,88.1667,275.33,80,100,5.76,RU,1618724047
"('jalu', 'ly')",29.0331,21.5482,301.03,18,56,4.02,LY,1618724047
"('rafai', 'cf')",4.95,23.9167,299.3,63,81,0.89,CF,1618724047
"('lodwar', 'ke')",3.1191,35.5973,303.35,44,74,8.98,KE,1618724048
"('zhanaozen', 'kz')",43.3,52.8,294.25,22,100,5.3,KZ,1618724048
"('megion', 'ru')",61.0296,76.1136,263.15,67,40,5.0,RU,1618724048
"('edd', 'er')",13.9297,41.6925,306.1,34,36,7.24,ER,1618724049
"('chingirlau', 'kz')",51.095,54.0814,290.16,55,13,1.68,KZ,1618724049
"('keti bandar', 'pk')",24.1447,67.4497,303.75,55,21,6.49,PK,1618724049
"('dengzhou', 'cn')",37.8086,120.7508,287.82,32,0,6.14,CN,1618724049
"('toora-khem', 'ru')",52.4675,96.11,280.02,38,91,0.79,RU,1618724049
"('talaya', 'ru')",61.3833,152.75,274.98,84,26,4.81,RU,1618724049
"('rudbar', 'af')",30.15,62.6,301.04,12,79,2.54,AF,1618724049
"('saskylakh', 'ru')",71.9167,114.0833,262.45,88,100,6.05,RU,1618724049
"('avanigadda', 'in')",16.0215,80.9181,306.15,62,40,3.09,IN,1618723879
"('miskindzha', 'ru')",41.424,47.8467,288.15,72,75,1.2,RU,1618724050
"('sangar', 'ru')",63.9242,127.4739,266.92,85,100,3.24,RU,1618724050
"('kudahuvadhoo', 'mv')",2.6708,72.8944,301.62,64,66,3.62,MV,1618724050
"('avezzano', 'it')",42.0402,13.4388,278.71,77,100,1.32,IT,1618724050
"('hovd', 'mn')",48.0056,91.6419,287.47,13,0,4.68,MN,1618723890
"('shimoda', 'jp')",34.6667,138.95,290.15,45,20,8.23,JP,1618723912
"('adrar', 'dz')",25.75,-1.0,292.68,24,0,5.32,DZ,1618724050
"('nong bua', 'th')",15.8646,100.5858,305.93,62,72,3.4,TH,1618724051
"('svetlaya', 'ru')",46.5389,138.3297,277.67,85,100,8.95,RU,1618724051
"('lerik', 'az')",38.7726,48.4128,290.15,77,40,1.03,AZ,1618724051
"('ekhabi', 'ru')",53.5102,142.9671,275.36,96,97,0.53,RU,1618724051
"('butaritari', 'ki')",3.0707,172.7902,300.79,78,99,4.84,KI,1618724051
"('nanchang', 'cn')",28.6833,115.8833,289.52,64,100,3.61,CN,1618723833
"('cherskiy', 'ru')",68.75,161.3,273.28,72,100,10.9,RU,1618724051
"('hami', 'cn')",42.8,93.45,296.4,9,92,0.64,CN,1618724052
"('bad aussee', 'at')",47.61,13.7824,274.26,100,100,1.05,AT,1618724052
"('hambantota', 'lk')",6.1241,81.1185,304.15,79,75,4.12,LK,1618724052
"('oskarshamn', 'se')",57.2645,16.4484,278.15,85,83,2.24,SE,1618724052
"('tynda', 'ru')",55.1667,124.7167,280.3,63,100,2.59,RU,1618723912
"('palimbang', 'ph')",6.2106,124.1894,302.12,72,94,4.55,PH,1618724052
"('pohorelice', 'cz')",48.9812,16.5245,279.82,75,20,3.09,CZ,1618724053
"('muli', 'mv')",2.9167,73.5667,301.8,64,79,3.83,MV,1618724053
"('panjab', 'af')",34.388,67.0233,279.55,34,7,2.3,AF,1618724053
"('caohai', 'cn')",26.8661,104.2841,284.38,84,100,2.09,CN,1618724054
"('kavieng', 'pg')",-2.5744,150.7967,301.95,71,55,3.52,PG,1618724054
"('kutum', 'sd')",14.2,24.6667,297.84,9,64,5.63,SD,1618724055
"('itoman', 'jp')",26.1247,127.6694,294.15,46,20,10.8,JP,1618723828
"('beringovskiy', 'ru')",63.05,179.3167,273.32,98,100,4.24,RU,1618724056
"('heihe', 'cn')",50.2441,127.4902,289.15,25,0,4.0,CN,1618723886
"('slawno', 'pl')",54.3628,16.6789,280.55,82,87,2.68,PL,1618724056
"('severo-kurilsk', 'ru')",50.6789,156.125,275.47,66,100,6.13,RU,1618724056
"('chulym', 'ru')",55.0997,80.9572,279.04,63,100,5.34,RU,1618724056
"('kropotkin', 'ru')",45.4375,40.5756,282.07,95,100,5.42,RU,1618724056
"('moron', 'mn')",47.3825,110.3165,288.87,22,78,7.61,MN,1618724057
"('aktash', 'ru')",50.3,87.7333,275.48,40,15,2.79,RU,1618724057
"('mandalgovi', 'mn')",45.7625,106.2708,289.31,11,8,5.34,MN,1618724057
"('makhalino', 'ru')",53.0854,46.2211,283.35,67,100,2.79,RU,1618724057
"('mago', 'ru')",53.2514,140.1822,279.04,85,99,1.43,RU,1618724057
"('ihiala', 'ng')",5.8538,6.8603,298.16,89,100,1.39,NG,1618724058
"('banda aceh', 'id')",5.5577,95.3222,303.01,67,43,3.64,ID,1618723804
"('tawang', 'in')",27.5833,91.8667,283.64,78,97,2.92,IN,1618724058
"('waddan', 'ly')",29.1614,16.139,296.55,40,100,1.38,LY,1618724058
"('castres', 'fr')",43.5833,2.1667,279.15,75,0,3.6,FR,1618724060
"('tazovskiy', 'ru')",67.4667,78.7,255.59,85,100,5.37,RU,1618724060
"('ouadda', 'cf')",8.0777,22.4007,300.27,48,96,1.98,CF,1618724060
"('komsomolsk', 'ru')",57.0291,40.3727,281.15,42,0,3.0,RU,1618724061
"('sirsi', 'in')",14.6167,74.85,308.89,27,21,1.31,IN,1618724061
"('schonebeck', 'de')",52.0167,11.75,280.37,84,100,4.02,DE,1618724061
"('bo phloi', 'th')",14.3236,99.5161,311.48,33,29,2.56,TH,1618724061
"('marabba', 'sd')",12.35,32.1833,304.7,4,8,3.77,SD,1618724061
"('naze', 'jp')",28.3667,129.4833,293.15,49,75,9.26,JP,1618723762
"('longyearbyen', 'sj')",78.2186,15.6401,276.15,65,40,10.29,SJ,1618723906
"('abnub', 'eg')",27.2696,31.1511,294.15,43,0,2.06,EG,1618724062
"('raseiniai', 'lt')",55.3736,23.1217,280.15,65,0,4.12,LT,1618724062
"('ippy', 'cf')",6.2679,21.2247,299.69,55,99,1.67,CF,1618724062
"('dikson', 'ru')",73.5069,80.5464,257.21,90,72,2.65,RU,1618724062
"('lokosovo', 'ru')",61.1333,74.8167,263.27,57,62,7.01,RU,1618724062
"('damaturu', 'ng')",11.747,11.9608,300.43,16,54,2.73,NG,1618723878
"('auchi', 'ng')",7.0667,6.2667,297.41,93,100,2.0,NG,1618724063
"('ouargaye', 'bf')",11.5033,0.0572,301.43,50,96,2.77,BF,1618724063
"('marsabit', 'ke')",2.3284,37.9899,294.09,68,59,9.25,KE,1618724063
"('panzhihua', 'cn')",26.5851,101.7128,301.59,31,57,1.69,CN,1618724063
"('abrau-dyurso', 'ru')",44.69,37.59,284.15,82,75,3.0,RU,1618724063
"('abu kamal', 'sy')",34.4506,40.9171,301.34,15,54,0.33,SY,1618724063
"('tricase', 'it')",39.9304,18.3553,283.15,87,40,0.51,IT,1618724063
"('erzin', 'ru')",50.261,95.1623,284.12,24,20,3.09,RU,1618724063
"('arukutti', 'in')",9.8667,76.35,300.15,89,40,2.06,IN,1618723812
"('dali', 'cn')",25.7,100.1833,295.65,34,57,3.26,CN,1618724064
"('garissa', 'ke')",-0.4536,39.6401,301.84,66,43,6.87,KE,1618724064
"('vardo', 'no')",70.3705,31.1107,274.95,88,60,6.54,NO,1618724064
"('buraydah', 'sa')",26.326,43.975,296.15,53,0,2.57,SA,1618724065
"('dudinka', 'ru')",69.4058,86.1778,251.82,88,42,3.91,RU,1618724065
"('kez', 'ru')",57.8979,53.7152,276.29,57,39,5.2,RU,1618724065
"('kuyanovo', 'ru')",55.8014,54.5372,283.36,51,0,3.75,RU,1618724065
"('tiksi', 'ru')",71.6872,128.8694,260.97,82,100,4.01,RU,1618724065
"('seoul', 'kr')",37.5683,126.9778,289.15,44,20,6.17,KR,1618723457
"('abonnema', 'ng')",4.7084,6.7931,299.51,83,100,1.43,NG,1618724065
"('batagay-alyta', 'ru')",67.8006,130.4114,268.22,69,100,1.53,RU,1618724066
"('odweyne', 'so')",9.4092,45.064,298.25,55,16,5.02,SO,1618724066
"('san', 'ml')",13.3034,-4.8956,301.47,34,100,3.0,ML,1618723837
"('half moon bay', 'us')",37.4636,-122.4286,286.15,93,90,3.09,US,1618724066
"('ucluelet', 'ca')",48.9329,-125.5528,284.82,72,1,1.47,CA,1618724066
"('trairi', 'br')",-3.2778,-39.2689,296.69,93,25,2.19,BR,1618724066
"('gunjur', 'gm')",13.2019,-16.7339,293.15,88,0,4.12,GM,1618724066
"('atuona', 'pf')",-9.8,-139.0333,300.08,74,29,8.48,PF,1618724066
"('rock sound', 'bs')",24.9,-76.2,298.14,79,9,5.42,BS,1618724067
"('iralaya', 'hn')",15.0,-83.2333,299.82,81,100,4.79,HN,1618724067
"('macomb', 'us')",40.4592,-90.6718,281.48,93,1,3.09,US,1618724067
"('san andres', 'co')",12.5847,-81.7006,301.15,83,40,4.12,CO,1618724067
"('fairbanks', 'us')",64.8378,-147.7164,282.15,40,1,2.57,US,1618724067
"('chalmette', 'us')",29.9427,-89.9634,289.82,82,90,3.09,US,1618724067
"('constitucion', 'mx')",23.9912,-104.6749,284.76,41,0,2.86,MX,1618724067
"('matagami', 'ca')",49.7502,-77.6328,274.15,80,90,2.57,CA,1618724068
"('gallup', 'us')",35.5281,-108.7426,276.15,81,90,1.54,US,1618724068
"('sao gabriel da cachoeira', 'br')",-0.1303,-67.0892,295.45,99,99,0.16,BR,1618724068
"('fortuna', 'us')",40.5982,-124.1573,282.59,100,90,1.46,US,1618724068
"('havelock', 'us')",34.8791,-76.9013,285.93,94,1,1.09,US,1618724068
"('silver city', 'us')",32.7701,-108.2803,282.15,53,1,3.6,US,1618724068
"('west plains', 'us')",36.7281,-91.8524,282.15,76,90,1.54,US,1618724068
"('torbay', 'ca')",47.6666,-52.7314,274.82,100,90,6.17,CA,1618724068
"('lavrentiya', 'ru')",65.5833,-171.0,267.95,97,33,1.46,RU,1618724069
"('ponta do sol', 'cv')",17.1994,-25.0919,294.15,73,20,8.75,CV,1618724069
"('corinth', 'us')",33.154,-97.0647,284.26,76,1,2.06,US,1618724069
"('stornoway', 'gb')",58.2093,-6.3865,280.37,93,90,11.32,GB,1618724069
"('carrizal', 've')",10.3499,-66.9863,301.15,69,75,0.68,VE,1618724069
"('mayo', 'ca')",63.5927,-135.8998,280.15,24,1,2.57,CA,1618724069
"('cayenne', 'gf')",4.9333,-52.3333,300.37,83,75,1.54,GF,1618724012
"('bathsheba', 'bb')",13.2167,-59.5167,299.15,65,20,9.26,BB,1618724070
"('westport', 'ie')",53.8,-9.5167,282.59,3,100,2.52,IE,1618724070
"('red deer', 'ca')",52.2668,-113.802,282.15,43,40,4.63,CA,1618724070
"('youghal', 'ie')",51.95,-7.8506,281.48,93,75,2.57,IE,1618724070
"('nouakchott', 'mr')",18.0858,-15.9785,293.15,73,0,4.63,MR,1618723871
"('saint-pierre', 'pm')",46.7654,-56.1695,275.56,96,100,12.43,PM,1618723804
"('kilrush', 'ie')",52.6397,-9.4833,281.15,87,75,3.6,IE,1618724070
"('sumter', 'us')",28.7086,-82.0831,293.15,90,100,0.45,US,1618724070
"('pangnirtung', 'ca')",66.1451,-65.7125,255.06,82,18,3.61,CA,1618724071
"('la marque', 'us')",29.3686,-94.9713,289.15,72,90,8.75,US,1618724071
"('san patricio', 'mx')",19.2167,-104.7,293.27,75,0,1.74,MX,1618724071
"('flin flon', 'ca')",54.7682,-101.865,269.99,81,84,4.42,CA,1618724071
"('buenos aires', 'cr')",9.1719,-83.3342,296.32,93,100,0.69,CR,1618724071
"('the valley', 'ai')",18.217,-63.0578,299.26,89,20,4.63,AI,1618724071
"('nanortalik', 'gl')",60.1432,-45.2371,268.74,53,0,9.54,GL,1618724072
"('loveland', 'us')",40.3978,-105.075,275.93,51,1,2.57,US,1618724072
"('cabo san lucas', 'mx')",22.8909,-109.9124,294.82,59,2,5.64,MX,1618724072
"('yellowknife', 'ca')",62.456,-114.3525,271.48,80,20,3.6,CA,1618724072
"('cravo norte', 'co')",6.3017,-70.2041,298.81,82,100,2.5,CO,1618724072
"('alcaniz', 'es')",41.05,-0.1333,278.71,79,1,2.68,ES,1618724073
"('kapuskasing', 'ca')",49.4169,-82.4331,272.15,74,98,1.03,CA,1618724073
"('guipavas', 'fr')",48.4352,-4.3972,276.15,93,0,2.57,FR,1618724073
"('san quintin', 'mx')",30.4833,-115.95,286.84,86,0,3.66,MX,1618724073
"('bonavista', 'ca')",48.6499,-53.1147,274.82,93,100,2.06,CA,1618724073
"('cockburn town', 'tc')",21.4612,-71.1419,298.67,86,0,6.83,TC,1618724073
"('bethel', 'us')",41.3712,-73.414,281.15,71,90,1.81,US,1618724073
"('kodiak', 'us')",57.79,-152.4072,278.15,87,90,1.54,US,1618724074
"('touros', 'br')",-5.1989,-35.4608,297.15,94,40,1.54,BR,1618724074
"('stuttgart', 'us')",34.5004,-91.5526,285.15,76,90,4.63,US,1618724074
"('tomatlan', 'mx')",19.9333,-105.25,290.8,86,0,1.19,MX,1618724074
"('morden', 'ca')",49.1919,-98.1014,277.15,70,100,5.79,CA,1618724075
"('saint-georges', 'gf')",3.9,-51.8,295.96,92,89,1.42,GF,1618724075
"('klaksvik', 'fo')",62.2266,-6.589,280.15,100,100,10.8,FO,1618724075
"('atar', 'mr')",20.5169,-13.0499,294.62,29,0,3.64,MR,1618724075
"('slave lake', 'ca')",55.2834,-114.769,275.15,100,90,2.06,CA,1618724075
"('curumani', 'co')",9.1999,-73.5427,297.48,89,90,1.46,CO,1618724075
"('champerico', 'gt')",14.3,-91.9167,292.59,97,66,3.53,GT,1618724076
"('port hardy', 'ca')",50.6996,-127.4199,284.15,81,20,1.43,CA,1618723921
"('puerto ayora', 'ec')",-0.7393,-90.3518,297.04,99,80,1.47,EC,1618724076
"('tasiilaq', 'gl')",65.6145,-37.6368,268.15,80,90,0.93,GL,1618724076
"('sao filipe', 'cv')",14.8961,-24.4956,295.06,73,0,3.98,CV,1618724076
"('axim', 'gh')",4.8699,-2.2405,299.79,82,98,2.56,GH,1618724077
"('lagoa', 'pt')",39.05,-27.9833,288.99,89,49,7.68,PT,1618724077
"('vila franca do campo', 'pt')",37.7167,-25.4333,289.15,94,75,5.66,PT,1618724077
"('kenora', 'ca')",49.8167,-94.4337,279.15,45,40,2.57,CA,1618724077
"('ewa beach', 'us')",21.3156,-158.0072,298.15,64,1,2.57,US,1618724078
"('saint george', 'bm')",32.3817,-64.6781,290.15,88,75,1.03,BM,1618724078
"('iqaluit', 'ca')",63.7506,-68.5145,262.15,73,75,1.03,CA,1618724078
"('gaoua', 'bf')",10.2992,-3.2508,298.83,64,83,2.62,BF,1618724078
"('eureka', 'us')",40.8021,-124.1637,282.04,96,3,1.29,US,1618724079
"('colon', 'pa')",9.3592,-79.9014,299.26,88,93,1.34,PA,1618724080
"('pochutla', 'mx')",15.7432,-96.4661,298.15,83,3,0.89,MX,1618724080
"('fort nelson', 'ca')",58.8053,-122.7002,275.15,100,40,1.03,CA,1618724080
"('qaanaaq', 'gl')",77.484,-69.3632,254.6,93,100,2.77,GL,1618724080
"('brookhaven', 'us')",31.5791,-90.4407,285.37,94,87,3.07,US,1618724080
"('simojovel', 'mx')",17.1391,-92.7103,295.65,63,12,0.93,MX,1618724080
"('boa vista', 'br')",2.8197,-60.6733,299.15,78,0,5.14,BR,1618724080
"('shaunavon', 'ca')",49.6501,-108.4181,282.15,29,78,5.66,CA,1618724080
"('belle glade', 'us')",26.6845,-80.6676,294.82,94,2,0.45,US,1618724081
"('kahului', 'us')",20.8947,-156.47,296.15,83,40,5.14,US,1618724081
"('upernavik', 'gl')",72.7868,-56.1549,258.79,90,100,4.61,GL,1618724081
"('texarkana', 'us')",33.4251,-94.0477,282.59,81,1,2.57,US,1618724081
"('norman wells', 'ca')",65.282,-126.8329,274.15,64,40,0.92,CA,1618724081
"('camacha', 'pt')",33.0833,-16.3333,289.15,77,40,5.14,PT,1618724081
"('barcelos', 'br')",-0.9747,-62.9242,295.97,99,100,0.58,BR,1618724081
"('bahia honda', 'cu')",22.9036,-83.1592,296.46,90,56,1.39,CU,1618724082
"('los llanos de aridane', 'es')",28.6585,-17.9182,292.15,63,90,5.14,ES,1618724082
"('itarema', 'br')",-2.9248,-39.9167,297.41,90,49,3.51,BR,1618724082
"('thompson', 'ca')",55.7435,-97.8558,269.15,80,90,4.63,CA,1618724082
"('woodward', 'us')",36.4337,-99.3904,279.26,81,90,3.6,US,1618724082
"('muros', 'es')",42.7762,-9.0603,280.93,90,96,2.54,ES,1618724082
"('clyde river', 'ca')",70.4692,-68.5914,258.15,85,90,5.66,CA,1618724082
"('moose factory', 'ca')",51.2585,-80.6094,269.15,93,75,1.03,CA,1618724082
"('tuktoyaktuk', 'ca')",69.4541,-133.0374,269.15,80,40,4.63,CA,1618724083
"('olafsvik', 'is')",64.8945,-23.7142,276.22,66,85,9.22,IS,1618724083
"('lewiston', 'us')",44.1003,-70.2148,277.04,93,75,2.06,US,1618724083
"('oranjestad', 'aw')",12.524,-70.027,300.15,83,20,8.23,AW,1618723807
"('oromocto', 'ca')",45.8351,-66.4792,275.15,86,90,5.66,CA,1618724084
"('hilo', 'us')",19.7297,-155.09,298.15,61,75,1.54,US,1618724084
"('marsh harbour', 'bs')",26.5412,-77.0636,297.54,80,6,4.81,BS,1618724084
"('cozumel', 'mx')",20.5083,-86.9458,300.15,83,20,4.12,MX,1618724084
"('sinnamary', 'gf')",5.3833,-52.95,298.3,80,93,5.88,GF,1618724084
"('kapaa', 'us')",22.0752,-159.319,295.15,60,20,4.63,US,1618724084
"('sabana de torres', 'co')",7.3915,-73.4957,295.95,97,98,1.99,CO,1618724084
"('mazagao', 'br')",-0.115,-51.2894,297.15,100,90,4.63,BR,1618724085
"('terrace', 'ca')",54.5163,-128.6035,283.15,53,1,0.89,CA,1618724085
"('bangolo', 'ci')",7.0069,-7.475,292.49,95,99,0.22,CI,1618724085
"('san-pedro', 'ci')",4.7485,-6.6363,297.3,91,90,1.65,CI,1618724086
"('sitka', 'us')",57.0531,-135.33,283.15,66,40,1.54,US,1618724086
"('sioux lookout', 'ca')",50.1001,-91.917,273.15,69,75,2.06,CA,1618724087
"('dingle', 'ie')",52.1408,-10.2689,282.0,93,100,7.02,IE,1618724087
"('hofn', 'is')",64.2539,-15.2082,279.43,91,100,5.0,IS,1618724087
"('barrow', 'us')",71.2906,-156.7887,273.15,74,1,5.14,US,1618724087
"('sassandra', 'ci')",4.95,-6.0833,297.08,91,93,1.69,CI,1618724087
"('provideniya', 'ru')",64.3833,-173.3,270.17,94,52,1.33,RU,1618724088
"('quesnel', 'ca')",52.9999,-122.5029,283.15,62,1,1.03,CA,1618724088
"('port-cartier', 'ca')",50.0334,-66.8654,272.04,80,20,3.6,CA,1618724088
"('san jose del palmar', 'co')",4.9742,-76.2283,289.4,95,100,0.67,CO,1618724088
"('collierville', 'us')",35.042,-89.6645,283.15,81,1,1.54,US,1618724089
"('hermiston', 'us')",45.8404,-119.2895,286.48,50,1,3.6,US,1618724089
"('englehart', 'ca')",47.8169,-79.8664,279.15,65,90,2.06,CA,1618724089
"('makakilo city', 'us')",21.3469,-158.0858,298.15,64,1,2.57,US,1618724089
"('ilulissat', 'gl')",69.2167,-51.1,258.15,61,40,8.75,GL,1618724089
"('georgetown', 'us')",30.6327,-97.6772,284.26,76,1,2.57,US,1618724089
"('ribeira grande', 'pt')",38.5167,-28.7,289.52,89,56,5.61,PT,1618724089
"('whitehorse', 'ca')",60.7161,-135.0538,279.15,49,1,3.09,CA,1618724090
"('bubaque', 'gw')",11.2833,-15.8333,297.61,72,78,2.32,GW,1618724090
"('oneida', 'us')",43.2001,-75.4663,277.59,81,75,0.62,US,1618724090
"('amapa', 'br')",1.0,-52.0,295.11,99,100,1.01,BR,1618724090
"('bambous virieux', 'mu')",-20.3428,57.7575,302.59,83,75,5.14,MU,1618724091
"('isangel', 'vu')",-19.55,169.2667,299.12,82,82,4.49,VU,1618724091
"('nelson bay', 'au')",-32.7167,152.15,293.15,59,55,5.14,AU,1618724092
"('kiunga', 'pg')",-6.1219,141.2906,299.6,81,100,1.95,PG,1618724092
"('chibombo', 'zm')",-14.6569,28.0706,289.17,77,100,5.35,ZM,1618724092
"('ahipara', 'nz')",-35.1667,173.1667,287.74,68,100,1.75,NZ,1618724092
"('pangkalanbuun', 'id')",-2.6833,111.6167,304.2,57,92,2.25,ID,1618724093
"('kruisfontein', 'za')",-34.0033,24.7314,293.76,26,3,1.82,ZA,1618724093
"('poum', 'nc')",-20.2333,164.0167,299.68,71,11,4.26,NC,1618724093
"('majene', 'id')",-3.5403,118.9707,302.22,67,91,2.39,ID,1618724093
"('albany', 'au')",-35.0169,117.8917,297.15,43,0,2.57,AU,1618724093
"('hobart', 'au')",-42.8794,147.3294,289.82,55,75,6.69,AU,1618723470
"('denpasar', 'id')",-8.65,115.2167,304.15,74,20,4.63,ID,1618723611
"('ambon', 'id')",-3.6954,128.1814,305.15,62,40,3.09,ID,1618723986
"('samarai', 'pg')",-10.6167,150.6667,302.03,74,72,6.64,PG,1618724094
"('mahajanga', 'mg')",-15.7167,46.3167,299.15,83,40,3.09,MG,1618724094
"('quelimane', 'mz')",-17.8786,36.8883,295.93,88,40,3.6,MZ,1618724094
"('tual', 'id')",-5.6667,132.75,300.07,79,100,5.06,ID,1618724095
"('hithadhoo', 'mv')",-0.6,73.0833,301.19,62,54,2.46,MV,1618724095
"('sola', 'vu')",-13.8833,167.55,301.29,73,94,4.06,VU,1618724095
"('kununurra', 'au')",-15.7667,128.7333,305.15,20,84,5.66,AU,1618724095
"('port lincoln', 'au')",-34.7333,135.8667,292.42,47,36,5.0,AU,1618724095
"('saint-philippe', 're')",-21.3585,55.7679,301.15,73,90,4.12,RE,1618724095
"('angoram', 'pg')",-4.0625,144.0661,297.37,93,100,0.64,PG,1618724095
"('cape town', 'za')",-33.9258,18.4232,294.82,51,0,3.6,ZA,1618724096
"('knysna', 'za')",-34.0363,23.0471,287.15,62,0,1.54,ZA,1618724096
"('nata', 'bw')",-20.2167,26.1833,288.19,61,0,5.75,BW,1618724096
"('quatre cocos', 'mu')",-20.2078,57.7625,302.59,83,75,5.14,MU,1618724096
"('aitape', 'pg')",-3.1374,142.3475,301.24,76,79,1.79,PG,1618724098
"('tuatapere', 'nz')",-46.1333,167.6833,287.59,64,91,2.68,NZ,1618724098
"('pemba', 'mz')",-12.974,40.5178,296.15,83,20,5.66,MZ,1618724098
"('new norfolk', 'au')",-42.7826,147.0587,289.82,73,100,1.79,AU,1618724098
"('port hedland', 'au')",-20.3167,118.5667,305.15,33,0,8.75,AU,1618724099
"('sorong', 'id')",-0.8833,131.25,302.96,70,87,3.96,ID,1618724099
"('port shepstone', 'za')",-30.7414,30.455,291.2,64,18,4.24,ZA,1618724099
"('inverell', 'au')",-29.7833,151.1167,292.59,53,1,2.24,AU,1618724100
"('broken hill', 'au')",-31.95,141.4333,292.15,37,0,3.6,AU,1618724100
"('chibuto', 'mz')",-24.6867,33.5306,292.68,59,52,0.82,MZ,1618724100
"('port keats', 'au')",-14.25,129.55,305.93,30,59,3.79,AU,1618724100
"('magole', 'tz')",-6.3667,37.3667,294.15,100,75,1.73,TZ,1618724100
"('hervey bay', 'au')",-25.2986,152.8535,297.59,71,61,1.79,AU,1618724100
"('karratha', 'au')",-20.7377,116.8463,304.4,42,0,7.46,AU,1618724100
"('busselton', 'au')",-33.65,115.3333,298.71,42,0,0.89,AU,1618724100
"('flinders', 'au')",-34.5833,150.8552,294.26,66,26,0.89,AU,1618724101
"('oranjemund', 'na')",-28.55,16.4333,297.76,36,3,1.42,NA,1618723807
"('bengkulu', 'id')",-3.8004,102.2655,301.99,65,92,2.83,ID,1618724102
"('takaka', 'nz')",-40.85,172.8,288.71,75,4,1.34,NZ,1618723965
"('banjar', 'id')",-8.19,114.9675,304.15,74,20,4.63,ID,1618724102
"('mount isa', 'au')",-20.7333,139.5,303.15,21,1,5.66,AU,1618724102
"('ambulu', 'id')",-8.345,113.6058,302.14,74,81,2.93,ID,1618724103
"('geraldton', 'au')",-28.7667,114.6,303.15,26,0,7.72,AU,1618723857
"('kirakira', 'sb')",-10.4544,161.9205,301.25,79,100,3.06,SB,1618724103
"('esperance', 'au')",-33.8667,121.9,297.15,35,75,3.09,AU,1618723835
"('miandrivazo', 'mg')",-19.5167,45.4667,299.18,59,78,2.02,MG,1618724103
"('nsanje', 'mw')",-16.92,35.262,293.23,89,100,2.25,MW,1618724103
"('yulara', 'au')",-25.2406,130.9889,297.15,22,0,5.66,AU,1618724104
"('boende', 'cd')",-0.2167,20.8667,296.28,92,100,1.39,CD,1618724104
"('saldanha', 'za')",-33.0117,17.9442,289.15,41,0,3.51,ZA,1618724104
"('gizo', 'sb')",-8.103,156.8419,301.93,72,90,1.12,SB,1618724105
"('katherine', 'au')",-14.4667,132.2667,305.15,23,62,5.66,AU,1618724105
"('mayumba', 'ga')",-3.432,10.6554,299.01,88,100,1.22,GA,1618724105
"('souillac', 'mu')",-20.5167,57.5167,300.15,83,75,5.14,MU,1618724106
"('fomboni', 'km')",-12.28,43.7425,300.59,75,55,9.47,KM,1618724106
"('mbekenyera', 'tz')",-10.0,38.9833,294.99,76,29,4.55,TZ,1618724106
"('basoko', 'cd')",1.2391,23.616,296.97,87,100,2.1,CD,1618724107
"('te anau', 'nz')",-45.4167,167.7167,284.35,81,90,3.27,NZ,1618724107
"('portland', 'au')",-38.3333,141.6,289.69,67,38,5.94,AU,1618724107
"('port alfred', 'za')",-33.5906,26.891,295.05,26,6,3.35,ZA,1618724107
"('port elizabeth', 'za')",-33.918,25.5701,285.15,82,0,1.54,ZA,1618724041
"('warwick', 'au')",-28.2333,152.0167,292.04,61,15,1.79,AU,1618724108
"('howard springs', 'au')",-12.497,131.047,306.48,27,0,6.69,AU,1618724108
"('waipawa', 'nz')",-41.4122,175.5153,289.26,59,7,8.23,NZ,1618724108
"('emerald', 'au')",-23.5333,148.1667,302.15,34,0,2.57,AU,1618724010
"('omboue', 'ga')",-1.5746,9.2618,298.66,90,100,1.54,GA,1618724109
"('vao', 'nc')",-22.6667,167.4833,297.12,78,66,8.2,NC,1618724109
"('kawalu', 'id')",-7.3817,108.2082,303.02,57,99,1.81,ID,1618724109
"('mlowo', 'tz')",-9.0,32.9833,289.97,81,95,3.17,TZ,1618724109
"('byron bay', 'au')",-28.65,153.6167,296.15,68,64,7.72,AU,1618724109
"('biloela', 'au')",-24.4167,150.5,300.68,34,2,3.84,AU,1618724109
"('messina', 'za')",-22.3513,30.0396,289.23,64,0,2.66,ZA,1618724109
"('dunedin', 'nz')",-45.8742,170.5036,287.59,64,98,0.45,NZ,1618724109
"('lusambo', 'cd')",-4.9667,23.45,295.14,95,100,0.4,CD,1618724110
"('alice springs', 'au')",-23.7,133.8833,296.48,20,0,7.2,AU,1618724106
"('opuwo', 'na')",-18.0607,13.84,294.49,43,93,4.06,NA,1618724110
"('bima', 'id')",-8.4667,118.7167,303.69,64,93,2.25,ID,1618724110
"('voi', 'ke')",-3.3945,38.563,299.19,62,70,3.35,KE,1618724110
"('sydney', 'au')",-33.8679,151.2073,293.15,60,20,4.12,AU,1618723803
"('hermanus', 'za')",-34.4187,19.2345,294.82,23,0,4.02,ZA,1618724110
"('victor harbor', 'au')",-35.5667,138.6167,291.48,68,83,0.89,AU,1618724111
"('russell', 'nz')",-35.2613,174.1236,289.82,78,100,1.49,NZ,1618724111
"('east london', 'za')",-33.0153,27.9116,286.15,71,0,2.06,ZA,1618723886
"('beloha', 'mg')",-25.1667,45.05,293.24,51,77,6.09,MG,1618724111
"('saint-joseph', 're')",-21.3667,55.6167,298.15,73,90,4.12,RE,1618724039
"('masuguru', 'tz')",-11.3667,38.4167,295.38,75,3,3.69,TZ,1618724112
"('moree', 'au')",-29.4667,149.85,295.15,28,0,7.72,AU,1618724112
"('samfya', 'zm')",-11.3649,29.5565,290.92,73,88,5.44,ZM,1618724112
"('gamba', 'ga')",-2.65,10.0,298.8,90,100,1.33,GA,1618724112
"('amahai', 'id')",-3.3333,128.9167,304.26,82,92,0.45,ID,1618724112
"('bredasdorp', 'za')",-34.5322,20.0403,282.15,87,0,2.57,ZA,1618724112
"('sambava', 'mg')",-14.2667,50.1667,300.76,71,38,3.18,MG,1618724113
"('luderitz', 'na')",-26.6481,15.1594,298.29,38,3,3.01,NA,1618724113
"('kilindoni', 'tz')",-7.9139,39.6668,299.02,81,86,11.37,TZ,1618724113
"('merauke', 'id')",-8.4667,140.3333,298.75,88,100,1.71,ID,1618723958
"('roebourne', 'au')",-20.7833,117.1333,304.25,38,0,7.15,AU,1618724114
"('richards bay', 'za')",-28.783,32.0377,291.31,65,3,4.77,ZA,1618724114
"('murwillumbah', 'au')",-28.3167,153.4,297.04,49,19,5.66,AU,1618724114
"('moba', 'cd')",-7.0427,29.7737,297.32,75,78,4.47,CD,1618724114
"('leeton', 'au')",-34.5667,146.4,293.15,37,0,3.6,AU,1618724114
"('buala', 'sb')",-8.145,159.5921,301.96,73,89,1.9,SB,1618724114
"('westport', 'nz')",-41.7526,171.6037,286.18,83,41,3.51,NZ,1618724114
"('port moresby', 'pg')",-9.4431,147.1797,303.15,74,75,4.12,PG,1618723849
"('praya', 'id')",-8.7054,116.2704,304.15,62,40,5.14,ID,1618724115
"('micheweni', 'tz')",-4.9667,39.8333,299.11,86,100,6.75,TZ,1618724115
"('inhambane', 'mz')",-23.865,35.3833,293.15,88,75,4.12,MZ,1618724116
"('cuamba', 'mz')",-14.8031,36.5372,292.94,71,49,4.04,MZ,1618724116
"('okakarara', 'na')",-20.5833,17.4333,288.2,61,26,3.16,NA,1618724116
"('broome', 'au')",-17.9667,122.2333,305.15,18,44,6.17,AU,1618724116
"('collie', 'au')",-33.3667,116.15,296.48,38,0,1.34,AU,1618724116
"('mahebourg', 'mu')",-20.4081,57.7,300.15,83,75,5.14,MU,1618724116
"('belfast', 'za')",-25.6899,30.035,283.69,76,2,1.63,ZA,1618724116
"('labuhan', 'id')",-6.8844,112.2051,302.64,64,96,2.36,ID,1618724117
"('christchurch', 'nz')",-43.5333,172.6333,291.15,59,5,2.57,NZ,1618723697
"('namibe', 'ao')",-15.1961,12.1522,300.77,66,8,1.85,AO,1618724117
"('margate', 'za')",-30.8636,30.3705,291.87,61,21,4.76,ZA,1618724117
"('madang', 'pg')",-5.2246,145.7966,298.11,87,100,4.35,PG,1618724117
"('sumbe', 'ao')",-11.2061,13.8437,299.67,73,65,1.74,AO,1618724117
"('nabire', 'id')",-3.3667,135.4833,300.86,77,85,0.61,ID,1618723967
"('carnarvon', 'au')",-24.8667,113.6333,301.09,44,13,4.73,AU,1618724117
"('touho', 'nc')",-20.7833,165.2333,298.44,73,49,5.02,NC,1618724118
"('atambua', 'id')",-9.1061,124.8925,301.07,63,87,2.2,ID,1618724118
"('victoria', 'sc')",-4.6167,55.45,303.15,74,40,2.06,SC,1618724118
"('auki', 'sb')",-8.7676,160.7034,302.0,72,100,0.34,SB,1618724118
"('kigoma', 'tz')",-4.8769,29.6267,293.15,100,75,2.97,TZ,1618724118
"('kismayo', 'so')",-0.3582,42.5454,302.66,69,22,3.72,SO,1618724118
"('bom jesus', 'br')",-9.0744,-44.3586,295.2,78,99,1.24,BR,1618724118
"('cacu', 'br')",-18.5567,-51.1308,292.71,90,54,0.73,BR,1618724119
"('sao geraldo do araguaia', 'br')",-6.4006,-48.555,295.45,98,100,1.08,BR,1618724119
"('altamira', 'br')",-3.2033,-52.2064,294.95,99,83,0.94,BR,1618724119
"('tabou', 'ci')",4.423,-7.3528,298.13,87,86,2.16,CI,1618724119
"('iquique', 'cl')",-20.2208,-70.1431,292.15,68,0,3.6,CL,1618724119
"('uberaba', 'br')",-19.7483,-47.9319,290.97,73,92,2.66,BR,1618724119
"('san nicolas', 'ar')",-34.605,-58.3761,294.15,83,20,4.12,AR,1618724119
"('maragogi', 'br')",-9.0122,-35.2225,297.08,85,96,0.69,BR,1618724120
"('san carlos de bariloche', 'ar')",-41.1456,-71.3082,281.15,61,0,1.54,AR,1618724120
"('sucua', 'ec')",-2.4667,-78.1667,292.52,96,86,1.56,EC,1618724122
"('pitimbu', 'br')",-7.4706,-34.8086,296.15,100,75,2.06,BR,1618724122
"('acari', 'pe')",-15.4311,-74.6158,294.8,79,11,0.85,PE,1618724122
"('belmonte', 'br')",-15.8631,-38.8828,294.15,94,0,1.54,BR,1618724122
"('el alto', 'pe')",-4.2714,-81.2147,294.19,76,93,3.41,PE,1618724122
"('fonte boa', 'br')",-2.4959,-66.2662,296.01,99,100,0.83,BR,1618724123
"('san alberto', 'py')",-24.9667,-54.9,293.15,94,0,2.57,PY,1618724123
"('coquimbo', 'cl')",-29.9533,-71.3436,287.15,88,90,1.03,CL,1618724123
"('san rafael', 'ar')",-34.6177,-68.3301,292.34,68,75,1.36,AR,1618724123
"('georgetown', 'sh')",-7.9333,-14.4167,299.41,73,54,7.32,SH,1618724123
"('constitucion', 'cl')",-35.3333,-72.4167,285.4,88,97,1.27,CL,1618724124
"('taltal', 'cl')",-25.4,-70.4833,290.31,80,3,1.01,CL,1618724124
"('jutai', 'br')",-5.1833,-68.9,295.38,99,97,0.65,BR,1618724124
"('jamestown', 'sh')",-15.9387,-5.7168,294.12,82,45,8.17,SH,1618724124
"('presidencia roque saenz pena', 'ar')",-26.7852,-60.4388,293.15,91,26,2.4,AR,1618724124
"('quirinopolis', 'br')",-18.4483,-50.4517,292.11,91,58,0.32,BR,1618724124
"('sao jose da coroa grande', 'br')",-8.8978,-35.1478,297.47,83,90,0.97,BR,1618724124
"('coari', 'br')",-4.085,-63.1414,295.28,98,92,1.01,BR,1618724126
"('san francisco', 'ar')",-31.428,-62.0827,293.15,89,0,0.45,AR,1618724126
"('ipixuna', 'br')",-1.7625,-48.8043,297.15,94,0,2.57,BR,1618724126
"('morros', 'br')",-9.4467,-46.3003,295.38,81,99,0.69,BR,1618724126
"('santa vitoria do palmar', 'br')",-33.5189,-53.3681,290.72,89,25,2.26,BR,1618724126
"('santiago', 'pe')",-14.1886,-75.7142,292.04,88,40,2.24,PE,1618724126
"('caravelas', 'br')",-17.7125,-39.2481,295.1,93,24,1.33,BR,1618724126
"('arica', 'cl')",-18.475,-70.3042,293.15,73,90,1.54,CL,1618724127
"('tautira', 'pf')",-17.7333,-149.15,301.15,69,20,1.03,PF,1618724127
"('vaitape', 'pf')",-16.5167,-151.75,301.12,73,30,4.16,PF,1618724127
"('arenapolis', 'br')",-14.4503,-56.8461,294.4,96,53,1.12,BR,1618724127
"('mar del plata', 'ar')",-38.0023,-57.5575,292.59,100,75,2.57,AR,1618724127
"('rafaela', 'ar')",-31.2503,-61.4867,293.15,61,7,0.45,AR,1618724127
"('illapel', 'cl')",-31.6308,-71.1653,289.43,77,4,1.44,CL,1618724127
"('haapiti', 'pf')",-17.5667,-149.8667,301.15,69,20,1.03,PF,1618724128
"('unai', 'br')",-16.3575,-46.9061,291.81,70,7,0.85,BR,1618724128
"('puerto narino', 'co')",-3.7703,-70.3831,298.15,100,40,0.84,CO,1618724128
"('vaini', 'to')",-21.2,-175.2,297.15,83,40,2.06,TO,1618724128
"('oyon', 'pe')",-10.6681,-76.7731,279.53,91,100,2.63,PE,1618724128
"('san cristobal', 'ec')",-0.9045,-89.6174,298.09,89,82,1.76,EC,1618724129
"('arraial do cabo', 'br')",-22.9661,-42.0278,297.23,81,99,9.13,BR,1618724129
"('sao felix do xingu', 'br')",-6.6447,-51.995,294.87,99,99,0.5,BR,1618724129
"('huarmey', 'pe')",-10.0681,-78.1522,292.89,89,97,3.01,PE,1618724129
"('chivilcoy', 'ar')",-34.8957,-60.0167,289.82,66,6,3.13,AR,1618724129
"('itacoatiara', 'br')",-3.1431,-58.4442,295.39,98,80,1.16,BR,1618724129
"('la rioja', 'ar')",-29.4111,-66.8507,294.77,79,64,0.12,AR,1618724130
"('avarua', 'ck')",-21.2078,-159.775,299.15,83,61,1.54,CK,1618724130
"('maldonado', 'uy')",-34.6667,-54.9167,290.37,100,40,1.03,UY,1618724130
"('dois riachos', 'br')",-9.3925,-37.1006,294.37,96,93,1.46,BR,1618724130
"('laguna', 'br')",-28.4825,-48.7808,291.25,92,100,1.56,BR,1618724131
"('lebu', 'cl')",-37.6167,-73.65,285.87,88,99,3.51,CL,1618724131
"('cidreira', 'br')",-30.1811,-50.2056,293.82,87,82,2.64,BR,1618724131
"('fare', 'pf')",-16.7,-151.0167,301.22,72,13,3.78,PF,1618724131
"('conceicao do araguaia', 'br')",-8.2578,-49.2647,296.15,100,0,1.54,BR,1618724131
"('rikitea', 'pf')",-23.1203,-134.9692,298.21,70,26,2.48,PF,1618724131
"('viedma', 'ar')",-40.8135,-62.9967,289.38,97,86,2.45,AR,1618724132
"('ilhabela', 'br')",-23.7781,-45.3581,295.7,83,100,2.17,BR,1618724132
"('alofi', 'nu')",-19.0595,-169.9187,299.15,78,3,1.54,NU,1618723887
"('sidrolandia', 'br')",-20.9319,-54.9614,293.15,88,0,1.03,BR,1618724133
"('catamarca', 'ar')",-28.4696,-65.7852,297.04,80,4,3.58,AR,1618724133
"('mollendo', 'pe')",-17.0231,-72.0147,292.23,83,21,3.22,PE,1618724133
"('calama', 'cl')",-22.4667,-68.9333,279.15,42,0,7.72,CL,1618724133
"('sao pedro', 'br')",-22.5486,-47.9139,291.51,93,91,1.06,BR,1618724133
"('santa rosa', 'bo')",-14.1667,-66.8833,295.41,97,46,1.35,BO,1618724133
"('peruibe', 'br')",-24.32,-46.9983,293.25,94,82,1.63,BR,1618724133
"('riachao das neves', 'br')",-11.7461,-44.91,294.92,76,99,0.86,BR,1618724133
"('rocha', 'uy')",-34.4833,-54.3333,288.3,96,84,1.71,UY,1618724135
"('rio grande', 'br')",-32.035,-52.0986,293.28,82,21,3.9,BR,1618724135
"('valdivia', 'cl')",-39.8142,-73.2459,282.15,100,0,1.03,CL,1618724136
"('necochea', 'ar')",-38.5473,-58.7368,289.82,88,89,4.55,AR,1618724136
"('santo antonio do sudoeste', 'br')",-26.0736,-53.7253,288.49,85,29,1.73,BR,1618724136
"('maceio', 'br')",-9.6658,-35.7353,296.15,100,40,2.06,BR,1618724136
"('rio gallegos', 'ar')",-51.6226,-69.2181,282.53,61,31,4.3,AR,1618724136
"('coremas', 'br')",-7.0144,-37.9458,296.24,87,94,0.54,BR,1618724136
"('iberia', 'pe')",-11.35,-69.5833,294.39,99,99,1.05,PE,1618724137
"('hualmay', 'pe')",-11.0964,-77.6139,292.44,90,73,2.7,PE,1618724137
"('juru', 'br')",-7.5369,-37.8186,293.51,90,100,1.87,BR,1618724137
"('alta floresta', 'br')",-9.8756,-56.0861,293.84,99,100,1.32,BR,1618724137
"('santa rosa', 'ar')",-36.6167,-64.2833,290.39,88,92,4.07,AR,1618724137
"('araguacu', 'br')",-12.9306,-49.8264,294.99,87,99,0.89,BR,1618724137
"('sao joao da barra', 'br')",-21.6403,-41.0511,296.75,84,100,6.01,BR,1618724137
"('ayacucho', 'pe')",-13.1583,-74.2239,284.18,88,48,0.45,PE,1618724138
"('puerto suarez', 'bo')",-18.95,-57.8,294.76,87,10,0.6,BO,1618724138
"('itaituba', 'br')",-4.2761,-55.9836,295.73,99,100,1.13,BR,1618724138
"('neuquen', 'ar')",-38.9516,-68.0591,286.15,71,0,2.35,AR,1618724138
"('mahina', 'pf')",-17.5065,-149.489,301.15,69,20,1.03,PF,1618724139
"('manicore', 'br')",-5.8092,-61.3003,296.15,94,75,1.19,BR,1618724139
"('macas', 'ec')",-2.3167,-78.1167,292.12,95,87,1.41,EC,1618724139
"('castro', 'cl')",-42.4721,-73.7732,281.48,68,100,6.26,CL,1618724140
"('moerai', 'pf')",-22.4333,-151.3333,299.22,72,25,3.45,PF,1618724140
"('harper', 'lr')",4.375,-7.7169,298.63,84,98,1.76,LR,1618724140
"('resistencia', 'ar')",-27.4606,-58.9839,294.26,94,0,1.54,AR,1618724140
"('pisco', 'pe')",-13.7,-76.2167,292.15,82,0,2.57,PE,1618724140
"('guaruja', 'br')",-23.9931,-46.2564,295.37,26,89,2.31,BR,1618724140
"('san pedro', 'bo')",-16.2372,-68.8506,276.96,88,0,2.24,BO,1618724140
"('mercedes', 'ar')",-34.6515,-59.4307,290.37,98,5,2.96,AR,1618724140
"('ancud', 'cl')",-41.8697,-73.8203,281.48,68,100,6.26,CL,1618724141
"('comodoro rivadavia', 'ar')",-45.8667,-67.5,284.15,71,0,3.2,AR,1618724141
"('eirunepe', 'br')",-6.6603,-69.8736,295.08,98,100,0.84,BR,1618724141
"('vicuna', 'cl')",-30.0319,-70.7081,287.15,88,90,1.03,CL,1618724141
"('chuy', 'uy')",-33.6971,-53.4616,290.38,89,38,2.09,UY,1618724141
"('natal', 'br')",-5.795,-35.2094,297.15,94,75,1.54,BR,1618724141
"('chivay', 'pe')",-15.6383,-71.6011,279.69,47,0,0.96,PE,1618724141
"('vila velha', 'br')",-20.3297,-40.2925,294.15,94,40,1.54,BR,1618724142
"('sao domingos do prata', 'br')",-19.865,-42.9683,290.15,100,75,0.66,BR,1618724142
"('huancavelica', 'pe')",-12.7667,-74.9833,275.07,91,44,1.05,PE,1618724142
"('san ignacio', 'pe')",-5.1458,-79.0014,290.41,98,100,0.65,PE,1618724142
"('takoradi', 'gh')",4.8845,-1.7554,299.5,83,96,2.71,GH,1618723933
"('tamandare', 'br')",-8.7597,-35.1047,297.38,84,85,1.18,BR,1618724142
"('mulchen', 'cl')",-37.7167,-72.2333,285.85,77,100,1.12,CL,1618724142
"('antofagasta', 'cl')",-23.65,-70.4,289.15,88,20,1.54,CL,1618724142
"('rawson', 'ar')",-43.3002,-65.1023,288.55,91,98,8.5,AR,1618723897
"('cabedelo', 'br')",-6.9811,-34.8339,296.15,100,75,2.06,BR,1618724143
"('matinhos', 'br')",-25.8175,-48.5428,287.59,86,97,3.58,BR,1618724143
"('cururupu', 'br')",-1.8283,-44.8683,296.36,97,99,1.31,BR,1618724143
"('ariquemes', 'br')",-9.9133,-63.0408,295.1,99,100,1.1,BR,1618724143
"('olavarria', 'ar')",-36.8927,-60.3225,289.82,92,42,1.34,AR,1618724143
"('goya', 'ar')",-29.14,-59.2626,291.94,92,1,2.05,AR,1618724143
"('punta arenas', 'cl')",-53.15,-70.9167,279.15,87,75,2.06,CL,1618724143
"('teahupoo', 'pf')",-17.8333,-149.2667,301.15,69,20,1.03,PF,1618724144
"('faanui', 'pf')",-16.4833,-151.75,301.12,73,30,4.17,PF,1618724144
"('ararangua', 'br')",-28.9347,-49.4858,290.6,91,100,1.03,BR,1618724144
"('guaranesia', 'br')",-21.2992,-46.8025,289.32,89,97,2.12,BR,1618724144
